[{"name":"les Escaldes","countryCode":"AD","latitude":"42.50729","longitude":"1.53414"},{"name":"Andorra la Vella","countryCode":"AD","latitude":"42.50779","longitude":"1.52109"},{"name":"Umm Al Quwain City","countryCode":"AE","latitude":"25.56473","longitude":"55.55517"},{"name":"Ras Al Khaimah City","countryCode":"AE","latitude":"25.78953","longitude":"55.9432"},{"name":"Zayed City","countryCode":"AE","latitude":"23.65416","longitude":"53.70522"},{"name":"Khawr Fakkān","countryCode":"AE","latitude":"25.33132","longitude":"56.34199"},{"name":"Dubai","countryCode":"AE","latitude":"25.07725","longitude":"55.30927"},{"name":"Dibba Al-Fujairah","countryCode":"AE","latitude":"25.59246","longitude":"56.26176"},{"name":"Dibba Al-Hisn","countryCode":"AE","latitude":"25.61955","longitude":"56.27291"},{"name":"Sharjah","countryCode":"AE","latitude":"25.33737","longitude":"55.41206"},{"name":"Ar Ruways","countryCode":"AE","latitude":"24.11028","longitude":"52.73056"},{"name":"Al Fujairah City","countryCode":"AE","latitude":"25.11641","longitude":"56.34141"},{"name":"Al Ain City","countryCode":"AE","latitude":"24.19167","longitude":"55.76056"},{"name":"Ajman City","countryCode":"AE","latitude":"25.40177","longitude":"55.47878"},{"name":"Adh Dhayd","countryCode":"AE","latitude":"25.28812","longitude":"55.88157"},{"name":"Abu Dhabi","countryCode":"AE","latitude":"24.45118","longitude":"54.39696"},{"name":"Khalifah A City","countryCode":"AE","latitude":"24.42588","longitude":"54.605"},{"name":"Bani Yas City","countryCode":"AE","latitude":"24.30978","longitude":"54.62944"},{"name":"Musaffah","countryCode":"AE","latitude":"24.35893","longitude":"54.48267"},{"name":"Al Shamkhah City","countryCode":"AE","latitude":"24.39268","longitude":"54.70779"},{"name":"Reef Al Fujairah City","countryCode":"AE","latitude":"25.14479","longitude":"56.24764"},{"name":"Zaranj","countryCode":"AF","latitude":"30.95962","longitude":"61.86037"},{"name":"Bāzār-e Yakāwlang","countryCode":"AF","latitude":"34.73525","longitude":"66.97379"},{"name":"Taloqan","countryCode":"AF","latitude":"36.73605","longitude":"69.53451"},{"name":"Shīnḏanḏ","countryCode":"AF","latitude":"33.30294","longitude":"62.1474"},{"name":"Shibirghān","countryCode":"AF","latitude":"36.66757","longitude":"65.7529"},{"name":"Shahrak","countryCode":"AF","latitude":"34.10737","longitude":"64.3052"},{"name":"Sar-e Pul","countryCode":"AF","latitude":"36.21544","longitude":"65.93249"},{"name":"Sang-e Chārak","countryCode":"AF","latitude":"35.84972","longitude":"66.43694"},{"name":"Aībak","countryCode":"AF","latitude":"36.26468","longitude":"68.01551"},{"name":"Rustāq","countryCode":"AF","latitude":"37.12604","longitude":"69.83045"},{"name":"Qarqīn","countryCode":"AF","latitude":"37.41853","longitude":"66.04358"},{"name":"Qarāwul","countryCode":"AF","latitude":"37.21959","longitude":"68.7802"},{"name":"Pul-e Khumrī","countryCode":"AF","latitude":"35.94458","longitude":"68.71512"},{"name":"Paghmān","countryCode":"AF","latitude":"34.58787","longitude":"68.95091"},{"name":"Nahrīn","countryCode":"AF","latitude":"36.0649","longitude":"69.13343"},{"name":"Maymana","countryCode":"AF","latitude":"35.92139","longitude":"64.78361"},{"name":"Mehtar Lām","countryCode":"AF","latitude":"34.67139","longitude":"70.20944"},{"name":"Mazār-e Sharīf","countryCode":"AF","latitude":"36.70904","longitude":"67.11087"},{"name":"Lashkar Gāh","countryCode":"AF","latitude":"31.59382","longitude":"64.37161"},{"name":"Kushk","countryCode":"AF","latitude":"33.29565","longitude":"61.95221"},{"name":"Kunduz","countryCode":"AF","latitude":"36.72895","longitude":"68.857"},{"name":"Khōst","countryCode":"AF","latitude":"33.33951","longitude":"69.92041"},{"name":"Khulm","countryCode":"AF","latitude":"36.69736","longitude":"67.69826"},{"name":"Khāsh","countryCode":"AF","latitude":"31.52919","longitude":"62.79055"},{"name":"Khanabad","countryCode":"AF","latitude":"36.68304","longitude":"69.11279"},{"name":"Karukh","countryCode":"AF","latitude":"34.48108","longitude":"62.5863"},{"name":"Kandahār","countryCode":"AF","latitude":"31.61332","longitude":"65.71013"},{"name":"Kabul","countryCode":"AF","latitude":"34.52813","longitude":"69.17233"},{"name":"Jalālābād","countryCode":"AF","latitude":"34.42647","longitude":"70.45153"},{"name":"Jabal os Saraj","countryCode":"AF","latitude":"35.11833","longitude":"69.23778"},{"name":"Herāt","countryCode":"AF","latitude":"34.34817","longitude":"62.19967"},{"name":"Ghormach","countryCode":"AF","latitude":"35.73062","longitude":"63.78264"},{"name":"Ghazni","countryCode":"AF","latitude":"33.55391","longitude":"68.42096"},{"name":"Gereshk","countryCode":"AF","latitude":"31.82089","longitude":"64.57005"},{"name":"Gardez","countryCode":"AF","latitude":"33.59744","longitude":"69.22592"},{"name":"Fayzabad","countryCode":"AF","latitude":"37.11664","longitude":"70.58002"},{"name":"Farah","countryCode":"AF","latitude":"32.37451","longitude":"62.11638"},{"name":"Eslam Qaleh","countryCode":"AF","latitude":"34.66667","longitude":"61.06667"},{"name":"Charikar","countryCode":"AF","latitude":"35.01361","longitude":"69.17139"},{"name":"Baraki Barak","countryCode":"AF","latitude":"33.96744","longitude":"68.9492"},{"name":"Bāmyān","countryCode":"AF","latitude":"34.82156","longitude":"67.82734"},{"name":"Balkh","countryCode":"AF","latitude":"36.75635","longitude":"66.8972"},{"name":"Baghlān","countryCode":"AF","latitude":"36.13068","longitude":"68.70829"},{"name":"Ārt Khwājah","countryCode":"AF","latitude":"37.08571","longitude":"69.47958"},{"name":"Āsmār","countryCode":"AF","latitude":"35.03333","longitude":"71.35809"},{"name":"Asadābād","countryCode":"AF","latitude":"34.87311","longitude":"71.14697"},{"name":"Andkhōy","countryCode":"AF","latitude":"36.95293","longitude":"65.12376"},{"name":"Bāzārak","countryCode":"AF","latitude":"35.31292","longitude":"69.51519"},{"name":"Markaz-e Woluswalī-ye Āchīn","countryCode":"AF","latitude":"34.12583","longitude":"70.70778"},{"name":"Saint John’s","countryCode":"AG","latitude":"17.12096","longitude":"-61.84329"},{"name":"The Valley","countryCode":"AI","latitude":"18.21704","longitude":"-63.05783"},{"name":"Sarandë","countryCode":"AL","latitude":"39.87534","longitude":"20.00477"},{"name":"Pogradec","countryCode":"AL","latitude":"40.9025","longitude":"20.6525"},{"name":"Kukës","countryCode":"AL","latitude":"42.07694","longitude":"20.42194"},{"name":"Korçë","countryCode":"AL","latitude":"40.61861","longitude":"20.78083"},{"name":"Gjirokastër","countryCode":"AL","latitude":"40.07583","longitude":"20.13889"},{"name":"Elbasan","countryCode":"AL","latitude":"41.1125","longitude":"20.08222"},{"name":"Burrel","countryCode":"AL","latitude":"41.61028","longitude":"20.00889"},{"name":"Vlorë","countryCode":"AL","latitude":"40.4686","longitude":"19.48318"},{"name":"Tirana","countryCode":"AL","latitude":"41.3275","longitude":"19.81889"},{"name":"Shkodër","countryCode":"AL","latitude":"42.06828","longitude":"19.51258"},{"name":"Patos Fshat","countryCode":"AL","latitude":"40.64278","longitude":"19.65083"},{"name":"Patos","countryCode":"AL","latitude":"40.68333","longitude":"19.61944"},{"name":"Lushnjë","countryCode":"AL","latitude":"40.94194","longitude":"19.705"},{"name":"Lezhë","countryCode":"AL","latitude":"41.78361","longitude":"19.64361"},{"name":"Laç","countryCode":"AL","latitude":"41.63556","longitude":"19.71306"},{"name":"Krujë","countryCode":"AL","latitude":"41.50917","longitude":"19.79278"},{"name":"Kavajë","countryCode":"AL","latitude":"41.18556","longitude":"19.55694"},{"name":"Fier-Çifçi","countryCode":"AL","latitude":"40.71667","longitude":"19.56667"},{"name":"Fier","countryCode":"AL","latitude":"40.72389","longitude":"19.55611"},{"name":"Durrës","countryCode":"AL","latitude":"41.32355","longitude":"19.45469"},{"name":"Berat","countryCode":"AL","latitude":"40.70583","longitude":"19.95222"},{"name":"Kapan","countryCode":"AM","latitude":"39.20755","longitude":"46.40576"},{"name":"Goris","countryCode":"AM","latitude":"39.51111","longitude":"46.34168"},{"name":"Hats’avan","countryCode":"AM","latitude":"39.46405","longitude":"45.97047"},{"name":"Artashat","countryCode":"AM","latitude":"39.96144","longitude":"44.54447"},{"name":"Ararat","countryCode":"AM","latitude":"39.83069","longitude":"44.70569"},{"name":"Yerevan","countryCode":"AM","latitude":"40.18111","longitude":"44.51361"},{"name":"Vagharshapat","countryCode":"AM","latitude":"40.16557","longitude":"44.29462"},{"name":"Stepanavan","countryCode":"AM","latitude":"41.00995","longitude":"44.38531"},{"name":"Spitak","countryCode":"AM","latitude":"40.83221","longitude":"44.26731"},{"name":"Sevan","countryCode":"AM","latitude":"40.5473","longitude":"44.94171"},{"name":"Masis","countryCode":"AM","latitude":"40.06572","longitude":"44.41913"},{"name":"Vanadzor","countryCode":"AM","latitude":"40.80456","longitude":"44.4939"},{"name":"Gavar","countryCode":"AM","latitude":"40.35398","longitude":"45.12386"},{"name":"Hrazdan","countryCode":"AM","latitude":"40.49748","longitude":"44.7662"},{"name":"Armavir","countryCode":"AM","latitude":"40.15446","longitude":"44.03815"},{"name":"Gyumri","countryCode":"AM","latitude":"40.7942","longitude":"43.84528"},{"name":"Ch’arents’avan","countryCode":"AM","latitude":"40.40289","longitude":"44.64447"},{"name":"Ashtarak","countryCode":"AM","latitude":"40.2991","longitude":"44.36204"},{"name":"Abovyan","countryCode":"AM","latitude":"40.27368","longitude":"44.63348"},{"name":"Saurimo","countryCode":"AO","latitude":"-9.66078","longitude":"20.39155"},{"name":"Lucapa","countryCode":"AO","latitude":"-8.41915","longitude":"20.74466"},{"name":"Luau","countryCode":"AO","latitude":"-10.70727","longitude":"22.22466"},{"name":"Uíge","countryCode":"AO","latitude":"-7.60874","longitude":"15.06131"},{"name":"Soio","countryCode":"AO","latitude":"-6.1349","longitude":"12.36894"},{"name":"N'zeto","countryCode":"AO","latitude":"-7.23116","longitude":"12.8666"},{"name":"N’dalatando","countryCode":"AO","latitude":"-9.29782","longitude":"14.91162"},{"name":"Mbanza Kongo","countryCode":"AO","latitude":"-6.26667","longitude":"14.23833"},{"name":"Malanje","countryCode":"AO","latitude":"-9.54015","longitude":"16.34096"},{"name":"Luanda","countryCode":"AO","latitude":"-8.83682","longitude":"13.23432"},{"name":"Caxito","countryCode":"AO","latitude":"-8.57848","longitude":"13.66425"},{"name":"Cabinda","countryCode":"AO","latitude":"-5.56717","longitude":"12.19787"},{"name":"Sumbe","countryCode":"AO","latitude":"-11.20605","longitude":"13.84371"},{"name":"Moçâmedes","countryCode":"AO","latitude":"-15.19611","longitude":"12.15222"},{"name":"Menongue","countryCode":"AO","latitude":"-14.6585","longitude":"17.69099"},{"name":"Luena","countryCode":"AO","latitude":"-11.78333","longitude":"19.91667"},{"name":"Lubango","countryCode":"AO","latitude":"-14.91717","longitude":"13.4925"},{"name":"Longonjo","countryCode":"AO","latitude":"-12.90795","longitude":"15.24845"},{"name":"Lobito","countryCode":"AO","latitude":"-12.3644","longitude":"13.53601"},{"name":"Cuito","countryCode":"AO","latitude":"-12.38333","longitude":"16.93333"},{"name":"Huambo","countryCode":"AO","latitude":"-12.77611","longitude":"15.73917"},{"name":"Catumbela","countryCode":"AO","latitude":"-12.43002","longitude":"13.54677"},{"name":"Catabola","countryCode":"AO","latitude":"-12.15","longitude":"17.28333"},{"name":"Camacupa","countryCode":"AO","latitude":"-12.01667","longitude":"17.48333"},{"name":"Caála","countryCode":"AO","latitude":"-12.8525","longitude":"15.56056"},{"name":"Benguela","countryCode":"AO","latitude":"-12.57626","longitude":"13.40547"},{"name":"Zárate","countryCode":"AR","latitude":"-34.09814","longitude":"-59.02858"},{"name":"Wanda","countryCode":"AR","latitude":"-25.96879","longitude":"-54.56285"},{"name":"Villa Ortúzar","countryCode":"AR","latitude":"-34.57973","longitude":"-58.46829"},{"name":"Villa Ocampo","countryCode":"AR","latitude":"-28.48752","longitude":"-59.35515"},{"name":"Villa Lugano","countryCode":"AR","latitude":"-34.67907","longitude":"-58.47263"},{"name":"Villaguay","countryCode":"AR","latitude":"-31.8653","longitude":"-59.02689"},{"name":"Villa Gesell","countryCode":"AR","latitude":"-37.26394","longitude":"-56.97304"},{"name":"Villa de Mayo","countryCode":"AR","latitude":"-34.5108","longitude":"-58.68059"},{"name":"Tortuguitas","countryCode":"AR","latitude":"-34.47513","longitude":"-58.75367"},{"name":"Tigre","countryCode":"AR","latitude":"-34.42603","longitude":"-58.57962"},{"name":"Tandil","countryCode":"AR","latitude":"-37.32167","longitude":"-59.13316"},{"name":"San Vicente","countryCode":"AR","latitude":"-26.61667","longitude":"-54.13333"},{"name":"Santo Tomé","countryCode":"AR","latitude":"-28.54939","longitude":"-56.04077"},{"name":"Santos Lugares","countryCode":"AR","latitude":"-34.60379","longitude":"-58.5461"},{"name":"Santa Elena","countryCode":"AR","latitude":"-30.94432","longitude":"-59.78832"},{"name":"San Pedro","countryCode":"AR","latitude":"-33.67918","longitude":"-59.66633"},{"name":"San Pedro","countryCode":"AR","latitude":"-26.62207","longitude":"-54.10842"},{"name":"San Luis del Palmar","countryCode":"AR","latitude":"-27.5079","longitude":"-58.55454"},{"name":"San Lorenzo","countryCode":"AR","latitude":"-28.13306","longitude":"-58.76733"},{"name":"San Javier","countryCode":"AR","latitude":"-30.57781","longitude":"-59.9317"},{"name":"San Isidro","countryCode":"AR","latitude":"-34.4721","longitude":"-58.52708"},{"name":"Saladas","countryCode":"AR","latitude":"-28.25384","longitude":"-58.62591"},{"name":"Retiro","countryCode":"AR","latitude":"-34.58333","longitude":"-58.38333"},{"name":"Resistencia","countryCode":"AR","latitude":"-27.46056","longitude":"-58.98389"},{"name":"Reconquista","countryCode":"AR","latitude":"-29.15","longitude":"-59.65"},{"name":"Quilmes","countryCode":"AR","latitude":"-34.72904","longitude":"-58.26374"},{"name":"Puerto Rico","countryCode":"AR","latitude":"-26.79598","longitude":"-55.02402"},{"name":"Puerto Iguazú","countryCode":"AR","latitude":"-25.59912","longitude":"-54.57355"},{"name":"Puerto Esperanza","countryCode":"AR","latitude":"-26.02267","longitude":"-54.61356"},{"name":"Puerto Eldorado","countryCode":"AR","latitude":"-26.40843","longitude":"-54.69463"},{"name":"Posadas","countryCode":"AR","latitude":"-27.36708","longitude":"-55.89608"},{"name":"Pontevedra","countryCode":"AR","latitude":"-34.74785","longitude":"-58.70072"},{"name":"Pirané","countryCode":"AR","latitude":"-25.73239","longitude":"-59.10879"},{"name":"Pilar","countryCode":"AR","latitude":"-34.45866","longitude":"-58.9142"},{"name":"Paso de los Libres","countryCode":"AR","latitude":"-29.71251","longitude":"-57.08771"},{"name":"Oberá","countryCode":"AR","latitude":"-27.48706","longitude":"-55.11994"},{"name":"Necochea","countryCode":"AR","latitude":"-38.5545","longitude":"-58.73961"},{"name":"Muñiz","countryCode":"AR","latitude":"-34.55622","longitude":"-58.70739"},{"name":"Morón","countryCode":"AR","latitude":"-34.6509","longitude":"-58.61956"},{"name":"Monte Caseros","countryCode":"AR","latitude":"-30.25359","longitude":"-57.63626"},{"name":"Montecarlo","countryCode":"AR","latitude":"-26.5662","longitude":"-54.757"},{"name":"Merlo","countryCode":"AR","latitude":"-34.66627","longitude":"-58.72927"},{"name":"Mercedes","countryCode":"AR","latitude":"-34.65145","longitude":"-59.43068"},{"name":"Mercedes","countryCode":"AR","latitude":"-29.18416","longitude":"-58.07519"},{"name":"Mar del Plata","countryCode":"AR","latitude":"-38.00042","longitude":"-57.5562"},{"name":"Luján","countryCode":"AR","latitude":"-34.57028","longitude":"-59.105"},{"name":"Los Polvorines","countryCode":"AR","latitude":"-34.50316","longitude":"-58.70596"},{"name":"La Plata","countryCode":"AR","latitude":"-34.92145","longitude":"-57.95453"},{"name":"La Paz","countryCode":"AR","latitude":"-30.74179","longitude":"-59.64517"},{"name":"Jardín América","countryCode":"AR","latitude":"-27.04346","longitude":"-55.22698"},{"name":"Hurlingham","countryCode":"AR","latitude":"-34.5904","longitude":"-58.62904"},{"name":"Gualeguaychú","countryCode":"AR","latitude":"-33.00937","longitude":"-58.51722"},{"name":"Gualeguay","countryCode":"AR","latitude":"-33.14156","longitude":"-59.30966"},{"name":"Goya","countryCode":"AR","latitude":"-29.13995","longitude":"-59.26343"},{"name":"Gobernador Virasora","countryCode":"AR","latitude":"-28.05","longitude":"-56.03333"},{"name":"General Pacheco","countryCode":"AR","latitude":"-34.45256","longitude":"-58.64312"},{"name":"General José de San Martín","countryCode":"AR","latitude":"-26.53743","longitude":"-59.34158"},{"name":"Garupá","countryCode":"AR","latitude":"-27.48171","longitude":"-55.82921"},{"name":"Formosa","countryCode":"AR","latitude":"-26.18489","longitude":"-58.17313"},{"name":"Fontana","countryCode":"AR","latitude":"-27.41813","longitude":"-59.02392"},{"name":"Federal","countryCode":"AR","latitude":"-30.95465","longitude":"-58.78326"},{"name":"Esquina","countryCode":"AR","latitude":"-30.01476","longitude":"-59.5289"},{"name":"El Soberbio","countryCode":"AR","latitude":"-27.29847","longitude":"-54.19877"},{"name":"Don Torcuato","countryCode":"AR","latitude":"-34.49459","longitude":"-58.62729"},{"name":"Dolores","countryCode":"AR","latitude":"-36.31321","longitude":"-57.67918"},{"name":"Curuzú Cuatiá","countryCode":"AR","latitude":"-29.79171","longitude":"-58.0546"},{"name":"Corrientes","countryCode":"AR","latitude":"-27.46784","longitude":"-58.8344"},{"name":"Concordia","countryCode":"AR","latitude":"-31.39296","longitude":"-58.02089"},{"name":"Concepción del Uruguay","countryCode":"AR","latitude":"-32.48463","longitude":"-58.23217"},{"name":"Colegiales","countryCode":"AR","latitude":"-34.57365","longitude":"-58.44924"},{"name":"Chajarí","countryCode":"AR","latitude":"-30.75048","longitude":"-57.97962"},{"name":"Campana","countryCode":"AR","latitude":"-34.16327","longitude":"-58.95919"},{"name":"Buenos Aires","countryCode":"AR","latitude":"-34.61315","longitude":"-58.37723"},{"name":"Boedo","countryCode":"AR","latitude":"-34.63333","longitude":"-58.41667"},{"name":"Berazategui","countryCode":"AR","latitude":"-34.76531","longitude":"-58.21278"},{"name":"Bella Vista","countryCode":"AR","latitude":"-34.5651","longitude":"-58.69034"},{"name":"Belgrano","countryCode":"AR","latitude":"-34.5627","longitude":"-58.45829"},{"name":"Barranqueras","countryCode":"AR","latitude":"-27.48132","longitude":"-58.93925"},{"name":"Barracas","countryCode":"AR","latitude":"-34.64966","longitude":"-58.38341"},{"name":"Balcarce","countryCode":"AR","latitude":"-37.84616","longitude":"-58.25522"},{"name":"Azul","countryCode":"AR","latitude":"-36.77698","longitude":"-59.85854"},{"name":"Avellaneda","countryCode":"AR","latitude":"-29.11761","longitude":"-59.65834"},{"name":"Aristóbulo del Valle","countryCode":"AR","latitude":"-27.09625","longitude":"-54.89626"},{"name":"Zapala","countryCode":"AR","latitude":"-38.89916","longitude":"-70.05442"},{"name":"Yerba Buena","countryCode":"AR","latitude":"-26.81667","longitude":"-65.31667"},{"name":"Villa Regina","countryCode":"AR","latitude":"-39.1","longitude":"-67.06667"},{"name":"Villa Paula de Sarmiento","countryCode":"AR","latitude":"-31.4933","longitude":"-68.53838"},{"name":"Villa Nueva","countryCode":"AR","latitude":"-32.43293","longitude":"-63.24763"},{"name":"Villa María","countryCode":"AR","latitude":"-32.40751","longitude":"-63.24016"},{"name":"Villa Dolores","countryCode":"AR","latitude":"-31.94585","longitude":"-65.18958"},{"name":"Villa Constitución","countryCode":"AR","latitude":"-33.22778","longitude":"-60.3297"},{"name":"Villa Carlos Paz","countryCode":"AR","latitude":"-31.42414","longitude":"-64.49778"},{"name":"Villa Ángela","countryCode":"AR","latitude":"-27.57383","longitude":"-60.71526"},{"name":"Villa Allende","countryCode":"AR","latitude":"-31.29458","longitude":"-64.29538"},{"name":"Viedma","countryCode":"AR","latitude":"-40.81345","longitude":"-62.99668"},{"name":"Victoria","countryCode":"AR","latitude":"-32.61841","longitude":"-60.15478"},{"name":"Vera","countryCode":"AR","latitude":"-29.4593","longitude":"-60.21261"},{"name":"Venado Tuerto","countryCode":"AR","latitude":"-33.74556","longitude":"-61.96885"},{"name":"Veinticinco de Mayo","countryCode":"AR","latitude":"-35.4323","longitude":"-60.17271"},{"name":"Ushuaia","countryCode":"AR","latitude":"-54.81084","longitude":"-68.31591"},{"name":"Unquillo","countryCode":"AR","latitude":"-31.23073","longitude":"-64.31615"},{"name":"Tres Isletas","countryCode":"AR","latitude":"-26.34067","longitude":"-60.43207"},{"name":"Tres Arroyos","countryCode":"AR","latitude":"-38.37394","longitude":"-60.27978"},{"name":"Trelew","countryCode":"AR","latitude":"-43.24895","longitude":"-65.30505"},{"name":"Termas de Río Hondo","countryCode":"AR","latitude":"-27.49362","longitude":"-64.85972"},{"name":"Tartagal","countryCode":"AR","latitude":"-22.51637","longitude":"-63.80131"},{"name":"Tafí Viejo","countryCode":"AR","latitude":"-26.73201","longitude":"-65.25921"},{"name":"Sunchales","countryCode":"AR","latitude":"-30.94404","longitude":"-61.56148"},{"name":"Santo Tomé","countryCode":"AR","latitude":"-31.66274","longitude":"-60.7653"},{"name":"Santiago del Estero","countryCode":"AR","latitude":"-27.79511","longitude":"-64.26149"},{"name":"Santa Rosa","countryCode":"AR","latitude":"-36.61667","longitude":"-64.28333"},{"name":"Santa Lucía","countryCode":"AR","latitude":"-31.53987","longitude":"-68.49503"},{"name":"Santa Fe","countryCode":"AR","latitude":"-31.64881","longitude":"-60.70868"},{"name":"San Salvador de Jujuy","countryCode":"AR","latitude":"-24.19457","longitude":"-65.29712"},{"name":"San Ramón de la Nueva Orán","countryCode":"AR","latitude":"-23.13705","longitude":"-64.32426"},{"name":"San Rafael","countryCode":"AR","latitude":"-34.61772","longitude":"-68.33007"},{"name":"San Pedro de Jujuy","countryCode":"AR","latitude":"-24.23127","longitude":"-64.86614"},{"name":"San Nicolás de los Arroyos","countryCode":"AR","latitude":"-33.33425","longitude":"-60.2108"},{"name":"San Miguel de Tucumán","countryCode":"AR","latitude":"-26.82414","longitude":"-65.2226"},{"name":"San Martín de los Andes","countryCode":"AR","latitude":"-40.15789","longitude":"-71.35337"},{"name":"San Martín","countryCode":"AR","latitude":"-33.08103","longitude":"-68.46814"},{"name":"San Luis","countryCode":"AR","latitude":"-33.29501","longitude":"-66.33563"},{"name":"San Justo","countryCode":"AR","latitude":"-30.78913","longitude":"-60.59189"},{"name":"San Juan","countryCode":"AR","latitude":"-31.5375","longitude":"-68.53639"},{"name":"San José de Jáchal","countryCode":"AR","latitude":"-30.24057","longitude":"-68.74693"},{"name":"San Jorge","countryCode":"AR","latitude":"-31.89618","longitude":"-61.85984"},{"name":"San Francisco","countryCode":"AR","latitude":"-31.42797","longitude":"-62.08266"},{"name":"Catamarca","countryCode":"AR","latitude":"-28.46957","longitude":"-65.78524"},{"name":"San Antonio Oeste","countryCode":"AR","latitude":"-40.73193","longitude":"-64.94769"},{"name":"Salta","countryCode":"AR","latitude":"-24.7859","longitude":"-65.41166"},{"name":"Rufino","countryCode":"AR","latitude":"-34.26827","longitude":"-62.71262"},{"name":"Rosario","countryCode":"AR","latitude":"-32.94682","longitude":"-60.63932"},{"name":"Río Tercero","countryCode":"AR","latitude":"-32.17301","longitude":"-64.11405"},{"name":"Río Segundo","countryCode":"AR","latitude":"-31.6526","longitude":"-63.9099"},{"name":"Río Grande","countryCode":"AR","latitude":"-53.78769","longitude":"-67.70946"},{"name":"Río Gallegos","countryCode":"AR","latitude":"-51.62261","longitude":"-69.21813"},{"name":"Río Cuarto","countryCode":"AR","latitude":"-33.13067","longitude":"-64.34992"},{"name":"Río Ceballos","countryCode":"AR","latitude":"-31.16486","longitude":"-64.32241"},{"name":"Rawson","countryCode":"AR","latitude":"-43.30016","longitude":"-65.10228"},{"name":"Rafaela","countryCode":"AR","latitude":"-31.25033","longitude":"-61.4867"},{"name":"Quitilipi","countryCode":"AR","latitude":"-26.86913","longitude":"-60.21683"},{"name":"Punta Alta","countryCode":"AR","latitude":"-38.87588","longitude":"-62.07359"},{"name":"Puerto Madryn","countryCode":"AR","latitude":"-42.7692","longitude":"-65.03851"},{"name":"Presidencia Roque Sáenz Peña","countryCode":"AR","latitude":"-26.78522","longitude":"-60.43876"},{"name":"Pocito","countryCode":"AR","latitude":"-31.68333","longitude":"-68.58333"},{"name":"Plottier","countryCode":"AR","latitude":"-38.96667","longitude":"-68.23333"},{"name":"Pergamino","countryCode":"AR","latitude":"-33.88995","longitude":"-60.57357"},{"name":"Pérez","countryCode":"AR","latitude":"-32.99835","longitude":"-60.76791"},{"name":"Paraná","countryCode":"AR","latitude":"-31.73271","longitude":"-60.52897"},{"name":"Palpalá","countryCode":"AR","latitude":"-24.25798","longitude":"-65.21358"},{"name":"Olavarría","countryCode":"AR","latitude":"-36.89272","longitude":"-60.32254"},{"name":"Nueve de Julio","countryCode":"AR","latitude":"-35.44437","longitude":"-60.88313"},{"name":"Neuquén","countryCode":"AR","latitude":"-38.95161","longitude":"-68.0591"},{"name":"Morteros","countryCode":"AR","latitude":"-30.71164","longitude":"-61.99862"},{"name":"Monteros","countryCode":"AR","latitude":"-27.16741","longitude":"-65.49832"},{"name":"Mendoza","countryCode":"AR","latitude":"-32.89084","longitude":"-68.82717"},{"name":"Marcos Juárez","countryCode":"AR","latitude":"-32.6978","longitude":"-62.10672"},{"name":"Machagai","countryCode":"AR","latitude":"-26.92614","longitude":"-60.04955"},{"name":"Lincoln","countryCode":"AR","latitude":"-34.86649","longitude":"-61.5302"},{"name":"Libertador General San Martín","countryCode":"AR","latitude":"-23.81305","longitude":"-64.79353"},{"name":"Las Breñas","countryCode":"AR","latitude":"-27.08966","longitude":"-61.08161"},{"name":"La Rioja","countryCode":"AR","latitude":"-29.41105","longitude":"-66.85067"},{"name":"La Falda","countryCode":"AR","latitude":"-31.08841","longitude":"-64.48987"},{"name":"La Calera","countryCode":"AR","latitude":"-31.34377","longitude":"-64.33529"},{"name":"Laboulaye","countryCode":"AR","latitude":"-34.12662","longitude":"-63.39119"},{"name":"Junín","countryCode":"AR","latitude":"-34.58382","longitude":"-60.94332"},{"name":"Joaquín V. González","countryCode":"AR","latitude":"-25.11364","longitude":"-64.12628"},{"name":"Jesús María","countryCode":"AR","latitude":"-30.98153","longitude":"-64.09424"},{"name":"Granadero Baigorria","countryCode":"AR","latitude":"-32.85683","longitude":"-60.71754"},{"name":"Gobernador Gálvez","countryCode":"AR","latitude":"-33.03016","longitude":"-60.64045"},{"name":"General Villegas","countryCode":"AR","latitude":"-35.03285","longitude":"-63.01252"},{"name":"General Roca","countryCode":"AR","latitude":"-39.03333","longitude":"-67.58333"},{"name":"General Pinedo","countryCode":"AR","latitude":"-27.31667","longitude":"-61.28333"},{"name":"General Pico","countryCode":"AR","latitude":"-35.65662","longitude":"-63.75682"},{"name":"General Mosconi","countryCode":"AR","latitude":"-22.59588","longitude":"-63.81255"},{"name":"Gálvez","countryCode":"AR","latitude":"-32.02927","longitude":"-61.22103"},{"name":"Firmat","countryCode":"AR","latitude":"-33.45937","longitude":"-61.4832"},{"name":"Famaillá","countryCode":"AR","latitude":"-27.05413","longitude":"-65.40329"},{"name":"Esquel","countryCode":"AR","latitude":"-42.91147","longitude":"-71.31947"},{"name":"Esperanza","countryCode":"AR","latitude":"-31.4488","longitude":"-60.93173"},{"name":"Embarcación","countryCode":"AR","latitude":"-23.21003","longitude":"-64.09965"},{"name":"Embalse","countryCode":"AR","latitude":"-32.18","longitude":"-64.41809"},{"name":"El Bolsón","countryCode":"AR","latitude":"-41.96051","longitude":"-71.53336"},{"name":"Diamante","countryCode":"AR","latitude":"-32.06641","longitude":"-60.63837"},{"name":"Deán Funes","countryCode":"AR","latitude":"-30.42036","longitude":"-64.34984"},{"name":"Cutral-Có","countryCode":"AR","latitude":"-38.93424","longitude":"-69.23052"},{"name":"Cruz del Eje","countryCode":"AR","latitude":"-30.72644","longitude":"-64.80387"},{"name":"Crespo","countryCode":"AR","latitude":"-32.02873","longitude":"-60.30658"},{"name":"Cosquín","countryCode":"AR","latitude":"-31.24508","longitude":"-64.46563"},{"name":"Coronel Suárez","countryCode":"AR","latitude":"-37.45467","longitude":"-61.93343"},{"name":"Coronda","countryCode":"AR","latitude":"-31.97263","longitude":"-60.91983"},{"name":"Córdoba","countryCode":"AR","latitude":"-31.4135","longitude":"-64.18105"},{"name":"Comodoro Rivadavia","countryCode":"AR","latitude":"-45.86413","longitude":"-67.49656"},{"name":"Cipolletti","countryCode":"AR","latitude":"-38.93392","longitude":"-67.99032"},{"name":"Cinco Saltos","countryCode":"AR","latitude":"-38.82225","longitude":"-68.06293"},{"name":"Chivilcoy","countryCode":"AR","latitude":"-34.89566","longitude":"-60.01667"},{"name":"Chimbas","countryCode":"AR","latitude":"-31.48333","longitude":"-68.53333"},{"name":"Chilecito","countryCode":"AR","latitude":"-29.16195","longitude":"-67.4974"},{"name":"Charata","countryCode":"AR","latitude":"-27.21438","longitude":"-61.18795"},{"name":"Chacabuco","countryCode":"AR","latitude":"-34.64167","longitude":"-60.47389"},{"name":"Centenario","countryCode":"AR","latitude":"-38.82955","longitude":"-68.1318"},{"name":"Caucete","countryCode":"AR","latitude":"-31.65179","longitude":"-68.28105"},{"name":"Catriel","countryCode":"AR","latitude":"-37.87907","longitude":"-67.7956"},{"name":"Castelli","countryCode":"AR","latitude":"-25.94679","longitude":"-60.61947"},{"name":"Casilda","countryCode":"AR","latitude":"-33.04417","longitude":"-61.16806"},{"name":"Carcarañá","countryCode":"AR","latitude":"-32.85679","longitude":"-61.15331"},{"name":"Capitán Bermúdez","countryCode":"AR","latitude":"-32.82262","longitude":"-60.71852"},{"name":"Cañada de Gómez","countryCode":"AR","latitude":"-32.81636","longitude":"-61.39493"},{"name":"Caleta Olivia","countryCode":"AR","latitude":"-46.43929","longitude":"-67.52814"},{"name":"Bell Ville","countryCode":"AR","latitude":"-32.62591","longitude":"-62.68873"},{"name":"Bella Vista","countryCode":"AR","latitude":"-27.03424","longitude":"-65.30196"},{"name":"Bahía Blanca","countryCode":"AR","latitude":"-38.71959","longitude":"-62.27243"},{"name":"Arroyo Seco","countryCode":"AR","latitude":"-33.15489","longitude":"-60.50863"},{"name":"Arroyito","countryCode":"AR","latitude":"-31.42022","longitude":"-63.05002"},{"name":"Añatuya","countryCode":"AR","latitude":"-28.46064","longitude":"-62.83472"},{"name":"Alta Gracia","countryCode":"AR","latitude":"-31.65292","longitude":"-64.42826"},{"name":"Allen","countryCode":"AR","latitude":"-38.97736","longitude":"-67.82714"},{"name":"Alderetes","countryCode":"AR","latitude":"-26.81667","longitude":"-65.13333"},{"name":"Albardón","countryCode":"AR","latitude":"-31.43722","longitude":"-68.52556"},{"name":"Aguilares","countryCode":"AR","latitude":"-27.4338","longitude":"-65.61427"},{"name":"Balvanera","countryCode":"AR","latitude":"-34.61032","longitude":"-58.39766"},{"name":"Villa Santa Rita","countryCode":"AR","latitude":"-34.61082","longitude":"-58.481"},{"name":"Villa Mercedes","countryCode":"AR","latitude":"-33.67571","longitude":"-65.45783"},{"name":"San Miguel","countryCode":"AR","latitude":"-34.54335","longitude":"-58.71229"},{"name":"San Carlos de Bariloche","countryCode":"AR","latitude":"-41.14557","longitude":"-71.30822"},{"name":"Adrogué","countryCode":"AR","latitude":"-34.80041","longitude":"-58.38384"},{"name":"Ingeniero Pablo Nogués","countryCode":"AR","latitude":"-34.47775","longitude":"-58.70652"},{"name":"José C. Paz","countryCode":"AR","latitude":"-34.51541","longitude":"-58.76813"},{"name":"Santa María","countryCode":"AR","latitude":"-34.56635","longitude":"-58.75762"},{"name":"Pago Pago","countryCode":"AS","latitude":"-14.27806","longitude":"-170.7025"},{"name":"Wilten","countryCode":"AT","latitude":"47.25829","longitude":"11.38808"},{"name":"Wiener Neustadt","countryCode":"AT","latitude":"47.80485","longitude":"16.23196"},{"name":"Vienna","countryCode":"AT","latitude":"48.20849","longitude":"16.37208"},{"name":"Wetzelsdorf","countryCode":"AT","latitude":"47.05293","longitude":"15.39923"},{"name":"Wels","countryCode":"AT","latitude":"48.16667","longitude":"14.03333"},{"name":"Weinzierl bei Krems","countryCode":"AT","latitude":"48.4","longitude":"15.6"},{"name":"Villach","countryCode":"AT","latitude":"46.61028","longitude":"13.85583"},{"name":"Telfs","countryCode":"AT","latitude":"47.30707","longitude":"11.06817"},{"name":"Straßgang","countryCode":"AT","latitude":"47.03333","longitude":"15.4"},{"name":"Stockerau","countryCode":"AT","latitude":"48.38333","longitude":"16.21667"},{"name":"Steyr","countryCode":"AT","latitude":"48.04274","longitude":"14.42127"},{"name":"Simmering","countryCode":"AT","latitude":"48.18333","longitude":"16.43333"},{"name":"Sankt Pölten","countryCode":"AT","latitude":"48.2","longitude":"15.63333"},{"name":"Sankt Peter","countryCode":"AT","latitude":"47.05","longitude":"15.46667"},{"name":"Sankt Peter","countryCode":"AT","latitude":"46.62978","longitude":"14.34016"},{"name":"Sankt Martin","countryCode":"AT","latitude":"46.61667","longitude":"14.28333"},{"name":"Salzburg","countryCode":"AT","latitude":"47.79941","longitude":"13.04399"},{"name":"Saalfelden am Steinernen Meer","countryCode":"AT","latitude":"47.42681","longitude":"12.848"},{"name":"Pradl","countryCode":"AT","latitude":"47.26539","longitude":"11.4152"},{"name":"Perchtoldsdorf","countryCode":"AT","latitude":"48.11935","longitude":"16.26607"},{"name":"Ottakring","countryCode":"AT","latitude":"48.21667","longitude":"16.3"},{"name":"Mödling","countryCode":"AT","latitude":"48.08605","longitude":"16.28921"},{"name":"Meidling","countryCode":"AT","latitude":"48.16667","longitude":"16.33333"},{"name":"Lustenau","countryCode":"AT","latitude":"47.42642","longitude":"9.65851"},{"name":"Linz","countryCode":"AT","latitude":"48.30639","longitude":"14.28611"},{"name":"Klosterneuburg","countryCode":"AT","latitude":"48.30521","longitude":"16.32522"},{"name":"Klagenfurt am Wörthersee","countryCode":"AT","latitude":"46.62472","longitude":"14.30528"},{"name":"Innsbruck","countryCode":"AT","latitude":"47.26266","longitude":"11.39454"},{"name":"Innere Stadt","countryCode":"AT","latitude":"48.20906","longitude":"16.37135"},{"name":"Hötting","countryCode":"AT","latitude":"47.26815","longitude":"11.36868"},{"name":"Hohenems","countryCode":"AT","latitude":"47.36121","longitude":"9.68694"},{"name":"Hietzing","countryCode":"AT","latitude":"48.18623","longitude":"16.2965"},{"name":"Hernals","countryCode":"AT","latitude":"48.23333","longitude":"16.26667"},{"name":"Graz","countryCode":"AT","latitude":"47.06667","longitude":"15.45"},{"name":"Floridsdorf","countryCode":"AT","latitude":"48.25","longitude":"16.4"},{"name":"Feldkirch","countryCode":"AT","latitude":"47.23306","longitude":"9.6"},{"name":"Eggenberg","countryCode":"AT","latitude":"47.07","longitude":"15.39871"},{"name":"Dornbirn","countryCode":"AT","latitude":"47.41427","longitude":"9.74195"},{"name":"Bregenz","countryCode":"AT","latitude":"47.50311","longitude":"9.7471"},{"name":"Baden","countryCode":"AT","latitude":"48.00543","longitude":"16.23264"},{"name":"Amstetten","countryCode":"AT","latitude":"48.1229","longitude":"14.87206"},{"name":"Favoriten","countryCode":"AT","latitude":"48.16116","longitude":"16.38233"},{"name":"Donaustadt","countryCode":"AT","latitude":"48.2333","longitude":"16.46002"},{"name":"Jakomini","countryCode":"AT","latitude":"47.05441","longitude":"15.44984"},{"name":"Lend","countryCode":"AT","latitude":"47.08256","longitude":"15.41589"},{"name":"Geidorf","countryCode":"AT","latitude":"47.08393","longitude":"15.444"},{"name":"Sankt Leonhard","countryCode":"AT","latitude":"47.06924","longitude":"15.45784"},{"name":"Andritz","countryCode":"AT","latitude":"47.11387","longitude":"15.42348"},{"name":"Gries","countryCode":"AT","latitude":"47.06236","longitude":"15.42421"},{"name":"Scarborough","countryCode":"AU","latitude":"-31.89578","longitude":"115.76431"},{"name":"Rockingham","countryCode":"AU","latitude":"-32.27682","longitude":"115.72978"},{"name":"Perth","countryCode":"AU","latitude":"-31.95224","longitude":"115.8614"},{"name":"Mount Isa","countryCode":"AU","latitude":"-20.72523","longitude":"139.49727"},{"name":"Morphett Vale","countryCode":"AU","latitude":"-35.13333","longitude":"138.51667"},{"name":"Mandurah","countryCode":"AU","latitude":"-32.5269","longitude":"115.7217"},{"name":"Kwinana","countryCode":"AU","latitude":"-32.23013","longitude":"115.78128"},{"name":"Gosnells","countryCode":"AU","latitude":"-32.081","longitude":"116.0054"},{"name":"Geraldton","countryCode":"AU","latitude":"-28.77897","longitude":"114.61459"},{"name":"Gawler","countryCode":"AU","latitude":"-34.60251","longitude":"138.74902"},{"name":"Darwin","countryCode":"AU","latitude":"-12.46113","longitude":"130.84185"},{"name":"Byford","countryCode":"AU","latitude":"-32.22099","longitude":"116.009"},{"name":"Busselton","countryCode":"AU","latitude":"-33.65249","longitude":"115.3455"},{"name":"Bunbury","countryCode":"AU","latitude":"-33.32711","longitude":"115.64137"},{"name":"Australind","countryCode":"AU","latitude":"-33.2792","longitude":"115.71504"},{"name":"Alice Springs","countryCode":"AU","latitude":"-23.69748","longitude":"133.88362"},{"name":"Albany","countryCode":"AU","latitude":"-35.02692","longitude":"117.88369"},{"name":"Adelaide","countryCode":"AU","latitude":"-34.92866","longitude":"138.59863"},{"name":"Yarraville","countryCode":"AU","latitude":"-37.81667","longitude":"144.9"},{"name":"Wollert","countryCode":"AU","latitude":"-37.58333","longitude":"145.03333"},{"name":"Wodonga","countryCode":"AU","latitude":"-36.12179","longitude":"146.88809"},{"name":"Wheelers Hill","countryCode":"AU","latitude":"-37.9","longitude":"145.18333"},{"name":"Westmead","countryCode":"AU","latitude":"-33.80383","longitude":"150.98768"},{"name":"Werribee","countryCode":"AU","latitude":"-37.9","longitude":"144.66667"},{"name":"Warwick","countryCode":"AU","latitude":"-28.21901","longitude":"152.03438"},{"name":"Warrnambool","countryCode":"AU","latitude":"-38.38176","longitude":"142.48799"},{"name":"Warragul","countryCode":"AU","latitude":"-38.15912","longitude":"145.93118"},{"name":"Wantirna South","countryCode":"AU","latitude":"-37.88333","longitude":"145.21667"},{"name":"Wangaratta","countryCode":"AU","latitude":"-36.35846","longitude":"146.32056"},{"name":"Wahroonga","countryCode":"AU","latitude":"-33.71816","longitude":"151.11561"},{"name":"Upper Coomera","countryCode":"AU","latitude":"-27.87683","longitude":"153.28572"},{"name":"Truganina","countryCode":"AU","latitude":"-37.81667","longitude":"144.75"},{"name":"Traralgon","countryCode":"AU","latitude":"-38.19528","longitude":"146.5415"},{"name":"Townsville","countryCode":"AU","latitude":"-19.26639","longitude":"146.80569"},{"name":"Toowoomba","countryCode":"AU","latitude":"-27.56056","longitude":"151.95386"},{"name":"Thornbury","countryCode":"AU","latitude":"-37.75819","longitude":"145.00583"},{"name":"Thomastown","countryCode":"AU","latitude":"-37.68333","longitude":"145.01667"},{"name":"Templestowe","countryCode":"AU","latitude":"-37.75405","longitude":"145.14864"},{"name":"Tarneit","countryCode":"AU","latitude":"-37.83634","longitude":"144.65952"},{"name":"Taree","countryCode":"AU","latitude":"-31.91099","longitude":"152.45387"},{"name":"Tamworth","countryCode":"AU","latitude":"-31.09048","longitude":"150.92905"},{"name":"Sydney","countryCode":"AU","latitude":"-33.86785","longitude":"151.20732"},{"name":"Surry Hills","countryCode":"AU","latitude":"-33.88374","longitude":"151.21282"},{"name":"Surfers Paradise","countryCode":"AU","latitude":"-28.00274","longitude":"153.42999"},{"name":"Sunbury","countryCode":"AU","latitude":"-37.57742","longitude":"144.72607"},{"name":"Strathfield","countryCode":"AU","latitude":"-33.88096","longitude":"151.07986"},{"name":"Springvale","countryCode":"AU","latitude":"-37.94853","longitude":"145.15274"},{"name":"South Yarra","countryCode":"AU","latitude":"-37.83834","longitude":"144.99149"},{"name":"Southport","countryCode":"AU","latitude":"-27.96724","longitude":"153.39796"},{"name":"Shepparton","countryCode":"AU","latitude":"-36.38047","longitude":"145.39867"},{"name":"Seven Hills","countryCode":"AU","latitude":"-33.78333","longitude":"150.93333"},{"name":"Seaford","countryCode":"AU","latitude":"-38.1","longitude":"145.13333"},{"name":"Saint Kilda","countryCode":"AU","latitude":"-37.8676","longitude":"144.98099"},{"name":"Saint Ives","countryCode":"AU","latitude":"-33.72976","longitude":"151.15977"},{"name":"Saint Albans","countryCode":"AU","latitude":"-37.73333","longitude":"144.8"},{"name":"Ryde","countryCode":"AU","latitude":"-33.8188","longitude":"151.1062"},{"name":"Rowville","countryCode":"AU","latitude":"-37.93333","longitude":"145.23333"},{"name":"Rockhampton","countryCode":"AU","latitude":"-23.38032","longitude":"150.50595"},{"name":"Rockdale","countryCode":"AU","latitude":"-33.95","longitude":"151.13333"},{"name":"Ringwood","countryCode":"AU","latitude":"-37.81667","longitude":"145.23333"},{"name":"Richmond","countryCode":"AU","latitude":"-37.81819","longitude":"145.00176"},{"name":"Reservoir","countryCode":"AU","latitude":"-37.71667","longitude":"145"},{"name":"Quakers Hill","countryCode":"AU","latitude":"-33.73333","longitude":"150.88333"},{"name":"Preston","countryCode":"AU","latitude":"-37.75","longitude":"145.01667"},{"name":"Port Melbourne","countryCode":"AU","latitude":"-37.83961","longitude":"144.94228"},{"name":"Port Macquarie","countryCode":"AU","latitude":"-31.43084","longitude":"152.90894"},{"name":"Point Cook","countryCode":"AU","latitude":"-37.91482","longitude":"144.75088"},{"name":"Pascoe Vale","countryCode":"AU","latitude":"-37.73333","longitude":"144.93333"},{"name":"Palm Beach","countryCode":"AU","latitude":"-28.11694","longitude":"153.46584"},{"name":"Pakenham","countryCode":"AU","latitude":"-38.07018","longitude":"145.47411"},{"name":"Orange","countryCode":"AU","latitude":"-33.28397","longitude":"149.10018"},{"name":"Officer","countryCode":"AU","latitude":"-38.05916","longitude":"145.40947"},{"name":"North Melbourne","countryCode":"AU","latitude":"-37.79798","longitude":"144.94512"},{"name":"Northcote","countryCode":"AU","latitude":"-37.76667","longitude":"145"},{"name":"Noble Park","countryCode":"AU","latitude":"-37.96667","longitude":"145.16667"},{"name":"Newcastle","countryCode":"AU","latitude":"-32.92953","longitude":"151.7801"},{"name":"Nerang","countryCode":"AU","latitude":"-27.98941","longitude":"153.33633"},{"name":"Narre Warren","countryCode":"AU","latitude":"-38.03333","longitude":"145.3"},{"name":"Narangba","countryCode":"AU","latitude":"-27.20338","longitude":"152.95923"},{"name":"Mulgrave","countryCode":"AU","latitude":"-37.92845","longitude":"145.17708"},{"name":"Mount Waverley","countryCode":"AU","latitude":"-37.87709","longitude":"145.12939"},{"name":"Mount Martha","countryCode":"AU","latitude":"-38.26667","longitude":"145.01667"},{"name":"Mount Gambier","countryCode":"AU","latitude":"-37.8318","longitude":"140.77919"},{"name":"Mount Eliza","countryCode":"AU","latitude":"-38.18333","longitude":"145.08333"},{"name":"Mount Druitt","countryCode":"AU","latitude":"-33.76667","longitude":"150.81667"},{"name":"Mosman","countryCode":"AU","latitude":"-33.83902","longitude":"151.23956"},{"name":"Mornington","countryCode":"AU","latitude":"-38.21792","longitude":"145.03876"},{"name":"Morayfield","countryCode":"AU","latitude":"-27.10876","longitude":"152.94907"},{"name":"South Morang","countryCode":"AU","latitude":"-37.65","longitude":"145.1"},{"name":"Mooroolbark","countryCode":"AU","latitude":"-37.78247","longitude":"145.31682"},{"name":"Moonee Ponds","countryCode":"AU","latitude":"-37.76667","longitude":"144.91667"},{"name":"Mitcham","countryCode":"AU","latitude":"-37.81667","longitude":"145.2"},{"name":"Miranda","countryCode":"AU","latitude":"-34.03857","longitude":"151.10005"},{"name":"Mill Park","countryCode":"AU","latitude":"-37.66667","longitude":"145.06667"},{"name":"Mildura","countryCode":"AU","latitude":"-34.18551","longitude":"142.16251"},{"name":"Merrylands","countryCode":"AU","latitude":"-33.83333","longitude":"150.98333"},{"name":"Mernda","countryCode":"AU","latitude":"-37.60075","longitude":"145.09555"},{"name":"Melbourne","countryCode":"AU","latitude":"-37.814","longitude":"144.96332"},{"name":"Mascot","countryCode":"AU","latitude":"-33.92598","longitude":"151.19347"},{"name":"Maryborough","countryCode":"AU","latitude":"-25.54073","longitude":"152.70493"},{"name":"Marrickville","countryCode":"AU","latitude":"-33.90741","longitude":"151.15546"},{"name":"Maroubra","countryCode":"AU","latitude":"-33.95","longitude":"151.23333"},{"name":"Manly","countryCode":"AU","latitude":"-33.79798","longitude":"151.28826"},{"name":"Maitland","countryCode":"AU","latitude":"-32.73308","longitude":"151.5574"},{"name":"Mackay","countryCode":"AU","latitude":"-21.15345","longitude":"149.16554"},{"name":"Liverpool","countryCode":"AU","latitude":"-33.91938","longitude":"150.92588"},{"name":"Lilydale","countryCode":"AU","latitude":"-37.75","longitude":"145.35"},{"name":"Lidcombe","countryCode":"AU","latitude":"-33.86436","longitude":"151.0397"},{"name":"Launceston","countryCode":"AU","latitude":"-41.43876","longitude":"147.13467"},{"name":"Lara","countryCode":"AU","latitude":"-38.02388","longitude":"144.40617"},{"name":"Langwarrin","countryCode":"AU","latitude":"-38.16667","longitude":"145.16667"},{"name":"Lalor","countryCode":"AU","latitude":"-37.66667","longitude":"145.01667"},{"name":"Lakemba","countryCode":"AU","latitude":"-33.91972","longitude":"151.07592"},{"name":"Kogarah","countryCode":"AU","latitude":"-33.9681","longitude":"151.13564"},{"name":"Keysborough","countryCode":"AU","latitude":"-37.99116","longitude":"145.17385"},{"name":"Kew","countryCode":"AU","latitude":"-37.80639","longitude":"145.03086"},{"name":"Kensington","countryCode":"AU","latitude":"-33.92019","longitude":"151.22241"},{"name":"Hornsby","countryCode":"AU","latitude":"-33.70244","longitude":"151.09931"},{"name":"Hobart","countryCode":"AU","latitude":"-42.87936","longitude":"147.32941"},{"name":"Hawthorn South","countryCode":"AU","latitude":"-37.8329","longitude":"145.0367"},{"name":"Hawthorn","countryCode":"AU","latitude":"-37.81992","longitude":"145.0358"},{"name":"Hampton Park","countryCode":"AU","latitude":"-38.03333","longitude":"145.25"},{"name":"Griffith","countryCode":"AU","latitude":"-34.28853","longitude":"146.05093"},{"name":"Greenvale","countryCode":"AU","latitude":"-37.63333","longitude":"144.86667"},{"name":"Greensborough","countryCode":"AU","latitude":"-37.70462","longitude":"145.10302"},{"name":"Granville","countryCode":"AU","latitude":"-33.8406","longitude":"151.00748"},{"name":"Goulburn","countryCode":"AU","latitude":"-34.75155","longitude":"149.72086"},{"name":"Gold Coast","countryCode":"AU","latitude":"-28.00029","longitude":"153.43088"},{"name":"Glen Waverley","countryCode":"AU","latitude":"-37.87811","longitude":"145.16476"},{"name":"Glenroy","countryCode":"AU","latitude":"-37.7","longitude":"144.93333"},{"name":"Glen Iris","countryCode":"AU","latitude":"-37.86667","longitude":"145.06667"},{"name":"Glenferrie","countryCode":"AU","latitude":"-37.83333","longitude":"145.05"},{"name":"Gladstone","countryCode":"AU","latitude":"-23.84852","longitude":"151.25775"},{"name":"Geelong","countryCode":"AU","latitude":"-38.14711","longitude":"144.36069"},{"name":"Frankston East","countryCode":"AU","latitude":"-38.13333","longitude":"145.13333"},{"name":"Frankston","countryCode":"AU","latitude":"-38.14458","longitude":"145.12291"},{"name":"Footscray","countryCode":"AU","latitude":"-37.8","longitude":"144.9"},{"name":"Fairfield","countryCode":"AU","latitude":"-33.86667","longitude":"150.95"},{"name":"Essendon","countryCode":"AU","latitude":"-37.74981","longitude":"144.9109"},{"name":"Epping","countryCode":"AU","latitude":"-37.65","longitude":"145.03333"},{"name":"Epping","countryCode":"AU","latitude":"-33.77271","longitude":"151.08184"},{"name":"Engadine","countryCode":"AU","latitude":"-34.06564","longitude":"151.01266"},{"name":"Eltham","countryCode":"AU","latitude":"-37.73333","longitude":"145.15"},{"name":"Eight Mile Plains","countryCode":"AU","latitude":"-27.58333","longitude":"153.1"},{"name":"Eastwood","countryCode":"AU","latitude":"-33.79176","longitude":"151.08057"},{"name":"Earlwood","countryCode":"AU","latitude":"-33.9209","longitude":"151.12506"},{"name":"Dubbo","countryCode":"AU","latitude":"-32.24295","longitude":"148.60484"},{"name":"Doreen","countryCode":"AU","latitude":"-37.6","longitude":"145.15"},{"name":"Doncaster East","countryCode":"AU","latitude":"-37.78761","longitude":"145.14888"},{"name":"Doncaster","countryCode":"AU","latitude":"-37.78828","longitude":"145.12373"},{"name":"Deer Park","countryCode":"AU","latitude":"-37.76722","longitude":"144.76657"},{"name":"Deception Bay","countryCode":"AU","latitude":"-27.19354","longitude":"153.02631"},{"name":"Dandenong","countryCode":"AU","latitude":"-37.98333","longitude":"145.2"},{"name":"Croydon","countryCode":"AU","latitude":"-37.8","longitude":"145.28333"},{"name":"Cronulla","countryCode":"AU","latitude":"-34.06251","longitude":"151.14961"},{"name":"Cranbourne","countryCode":"AU","latitude":"-38.11342","longitude":"145.28326"},{"name":"Craigieburn","countryCode":"AU","latitude":"-37.6","longitude":"144.95"},{"name":"Corio","countryCode":"AU","latitude":"-38.08333","longitude":"144.38333"},{"name":"Coorparoo","countryCode":"AU","latitude":"-27.49325","longitude":"153.05826"},{"name":"Coogee","countryCode":"AU","latitude":"-33.9205","longitude":"151.25522"},{"name":"Coffs Harbour","countryCode":"AU","latitude":"-30.29626","longitude":"153.11351"},{"name":"Coburg","countryCode":"AU","latitude":"-37.75","longitude":"144.96667"},{"name":"Clayton","countryCode":"AU","latitude":"-37.91667","longitude":"145.11667"},{"name":"Wollongong","countryCode":"AU","latitude":"-34.424","longitude":"150.89345"},{"name":"Chatswood","countryCode":"AU","latitude":"-33.8","longitude":"151.18333"},{"name":"Cessnock","countryCode":"AU","latitude":"-32.83211","longitude":"151.35623"},{"name":"Caulfield North","countryCode":"AU","latitude":"-37.8739","longitude":"145.02485"},{"name":"Castle Hill","countryCode":"AU","latitude":"-33.73333","longitude":"151"},{"name":"Carrum Downs","countryCode":"AU","latitude":"-38.09968","longitude":"145.17248"},{"name":"Carnegie","countryCode":"AU","latitude":"-37.89359","longitude":"145.05534"},{"name":"Carlton","countryCode":"AU","latitude":"-37.8","longitude":"144.96667"},{"name":"Carlingford","countryCode":"AU","latitude":"-33.78269","longitude":"151.04888"},{"name":"Capalaba","countryCode":"AU","latitude":"-27.54333","longitude":"153.20287"},{"name":"Canberra","countryCode":"AU","latitude":"-35.28346","longitude":"149.12807"},{"name":"Camberwell","countryCode":"AU","latitude":"-37.84205","longitude":"145.0694"},{"name":"Cairns","countryCode":"AU","latitude":"-16.92366","longitude":"145.76613"},{"name":"Caboolture","countryCode":"AU","latitude":"-27.08465","longitude":"152.9511"},{"name":"Burwood","countryCode":"AU","latitude":"-33.88333","longitude":"151.1"},{"name":"Burnie","countryCode":"AU","latitude":"-41.05584","longitude":"145.90375"},{"name":"Bundaberg","countryCode":"AU","latitude":"-24.86621","longitude":"152.3479"},{"name":"Buderim","countryCode":"AU","latitude":"-26.68443","longitude":"153.05705"},{"name":"Brunswick","countryCode":"AU","latitude":"-37.76667","longitude":"144.96667"},{"name":"Broken Hill","countryCode":"AU","latitude":"-31.9652","longitude":"141.4512"},{"name":"Brisbane","countryCode":"AU","latitude":"-27.46794","longitude":"153.02809"},{"name":"Brighton","countryCode":"AU","latitude":"-37.90561","longitude":"145.00279"},{"name":"Boronia","countryCode":"AU","latitude":"-37.86667","longitude":"145.28333"},{"name":"Blacktown","countryCode":"AU","latitude":"-33.76667","longitude":"150.91667"},{"name":"Bexley","countryCode":"AU","latitude":"-33.95","longitude":"151.11667"},{"name":"Berwick","countryCode":"AU","latitude":"-38.03333","longitude":"145.35"},{"name":"Bentleigh East","countryCode":"AU","latitude":"-37.91928","longitude":"145.05301"},{"name":"Bentleigh","countryCode":"AU","latitude":"-37.91806","longitude":"145.03544"},{"name":"Bendigo","countryCode":"AU","latitude":"-36.75818","longitude":"144.28024"},{"name":"Baulkham Hills","countryCode":"AU","latitude":"-33.75881","longitude":"150.99292"},{"name":"Bathurst","countryCode":"AU","latitude":"-33.41665","longitude":"149.5806"},{"name":"Banora Point","countryCode":"AU","latitude":"-28.21298","longitude":"153.53634"},{"name":"Bankstown","countryCode":"AU","latitude":"-33.91667","longitude":"151.03333"},{"name":"Ballarat","countryCode":"AU","latitude":"-37.56622","longitude":"143.84957"},{"name":"Bairnsdale","countryCode":"AU","latitude":"-37.82289","longitude":"147.61041"},{"name":"Auburn","countryCode":"AU","latitude":"-33.85","longitude":"151.03333"},{"name":"Ashfield","countryCode":"AU","latitude":"-33.88834","longitude":"151.12274"},{"name":"Ascot Vale","countryCode":"AU","latitude":"-37.77988","longitude":"144.92276"},{"name":"Armidale","countryCode":"AU","latitude":"-30.50123","longitude":"151.66553"},{"name":"Albany Creek","countryCode":"AU","latitude":"-27.35364","longitude":"152.96848"},{"name":"Maroochydore","countryCode":"AU","latitude":"-26.66008","longitude":"153.09953"},{"name":"Cheltenham","countryCode":"AU","latitude":"-37.96944","longitude":"145.04806"},{"name":"Randwick","countryCode":"AU","latitude":"-33.91439","longitude":"151.24895"},{"name":"Dee Why","countryCode":"AU","latitude":"-33.7511","longitude":"151.28886"},{"name":"Umina Beach","countryCode":"AU","latitude":"-33.52314","longitude":"151.31325"},{"name":"Palmerston","countryCode":"AU","latitude":"-12.48602","longitude":"130.9833"},{"name":"Hervey Bay","countryCode":"AU","latitude":"-25.28762","longitude":"152.76936"},{"name":"Sydney Central Business District","countryCode":"AU","latitude":"-33.86482","longitude":"151.20773"},{"name":"Kingsford","countryCode":"AU","latitude":"-33.92399","longitude":"151.22749"},{"name":"Springfield Lakes","countryCode":"AU","latitude":"-27.66757","longitude":"152.92488"},{"name":"Bracken Ridge","countryCode":"AU","latitude":"-27.3171","longitude":"153.03097"},{"name":"Kallangur","countryCode":"AU","latitude":"-27.25204","longitude":"152.99226"},{"name":"North Lakes","countryCode":"AU","latitude":"-27.22426","longitude":"153.02075"},{"name":"The Gap","countryCode":"AU","latitude":"-27.44187","longitude":"152.93861"},{"name":"Caroline Springs","countryCode":"AU","latitude":"-37.74124","longitude":"144.73631"},{"name":"Hoppers Crossing","countryCode":"AU","latitude":"-37.88264","longitude":"144.7003"},{"name":"Logan City","countryCode":"AU","latitude":"-27.63917","longitude":"153.10944"},{"name":"Carindale","countryCode":"AU","latitude":"-27.50578","longitude":"153.10236"},{"name":"Parramatta","countryCode":"AU","latitude":"-33.8178","longitude":"151.00348"},{"name":"Ferntree Gully","countryCode":"AU","latitude":"-37.88461","longitude":"145.29539"},{"name":"Adelaide Hills","countryCode":"AU","latitude":"-34.91119","longitude":"138.70735"},{"name":"Canning Vale","countryCode":"AU","latitude":"-32.05799","longitude":"115.91814"},{"name":"Glenmore Park","countryCode":"AU","latitude":"-33.79068","longitude":"150.6693"},{"name":"Southbank","countryCode":"AU","latitude":"-37.8228","longitude":"144.96434"},{"name":"Docklands","countryCode":"AU","latitude":"-37.8149","longitude":"144.95052"},{"name":"Helensvale","countryCode":"AU","latitude":"-27.91828","longitude":"153.33275"},{"name":"Elwood","countryCode":"AU","latitude":"-37.88214","longitude":"144.98215"},{"name":"Balwyn North","countryCode":"AU","latitude":"-37.79086","longitude":"145.09386"},{"name":"Malvern East","countryCode":"AU","latitude":"-37.87397","longitude":"145.04253"},{"name":"Brighton East","countryCode":"AU","latitude":"-37.90232","longitude":"145.01734"},{"name":"Redbank Plains","countryCode":"AU","latitude":"-27.64613","longitude":"152.85965"},{"name":"Labrador","countryCode":"AU","latitude":"-27.94402","longitude":"153.39815"},{"name":"St Albans","countryCode":"AU","latitude":"-37.74496","longitude":"144.80049"},{"name":"Endeavour Hills","countryCode":"AU","latitude":"-37.97695","longitude":"145.25866"},{"name":"Kellyville","countryCode":"AU","latitude":"-33.71028","longitude":"150.95095"},{"name":"Taylors Lakes","countryCode":"AU","latitude":"-37.69863","longitude":"144.78631"},{"name":"Cherrybrook","countryCode":"AU","latitude":"-33.72197","longitude":"151.04607"},{"name":"Roxburgh Park","countryCode":"AU","latitude":"-37.62581","longitude":"144.92555"},{"name":"Prestons","countryCode":"AU","latitude":"-33.94185","longitude":"150.8717"},{"name":"Wyndham Vale","countryCode":"AU","latitude":"-37.89138","longitude":"144.62368"},{"name":"Ballajura","countryCode":"AU","latitude":"-31.84062","longitude":"115.89549"},{"name":"Willetton","countryCode":"AU","latitude":"-32.05251","longitude":"115.88782"},{"name":"Glenwood","countryCode":"AU","latitude":"-33.73333","longitude":"150.93284"},{"name":"Cabramatta","countryCode":"AU","latitude":"-33.89743","longitude":"150.93446"},{"name":"Campsie","countryCode":"AU","latitude":"-33.9125","longitude":"151.10279"},{"name":"Casula","countryCode":"AU","latitude":"-33.95222","longitude":"150.89949"},{"name":"Cranebrook","countryCode":"AU","latitude":"-33.7061","longitude":"150.7094"},{"name":"Greenacre","countryCode":"AU","latitude":"-33.90034","longitude":"151.05563"},{"name":"Greystanes","countryCode":"AU","latitude":"-33.82346","longitude":"150.94607"},{"name":"Ellenbrook","countryCode":"AU","latitude":"-31.76737","longitude":"115.96936"},{"name":"Alexandra Hills","countryCode":"AU","latitude":"-27.53221","longitude":"153.22889"},{"name":"Calamvale","countryCode":"AU","latitude":"-27.62329","longitude":"153.04785"},{"name":"Yagoona","countryCode":"AU","latitude":"-33.9049","longitude":"151.01996"},{"name":"Highton","countryCode":"AU","latitude":"-38.17058","longitude":"144.3114"},{"name":"Pacific Pines","countryCode":"AU","latitude":"-27.93994","longitude":"153.31436"},{"name":"Robina","countryCode":"AU","latitude":"-28.07071","longitude":"153.39329"},{"name":"Paralowie","countryCode":"AU","latitude":"-34.75705","longitude":"138.60819"},{"name":"Baldivis","countryCode":"AU","latitude":"-32.32889","longitude":"115.83047"},{"name":"Dianella","countryCode":"AU","latitude":"-31.88822","longitude":"115.87186"},{"name":"Duncraig","countryCode":"AU","latitude":"-31.83291","longitude":"115.7759"},{"name":"Morley","countryCode":"AU","latitude":"-31.88775","longitude":"115.9099"},{"name":"Thornlie","countryCode":"AU","latitude":"-32.06003","longitude":"115.955"},{"name":"Landsdale","countryCode":"AU","latitude":"-31.8075","longitude":"115.86599"},{"name":"Punchbowl","countryCode":"AU","latitude":"-33.92893","longitude":"151.05111"},{"name":"Parafield Gardens","countryCode":"AU","latitude":"-34.78254","longitude":"138.61077"},{"name":"Hillside","countryCode":"AU","latitude":"-37.69047","longitude":"144.74172"},{"name":"St Clair","countryCode":"AU","latitude":"-33.79728","longitude":"150.7847"},{"name":"Kirwan","countryCode":"AU","latitude":"-19.30323","longitude":"146.72531"},{"name":"Bundoora","countryCode":"AU","latitude":"-37.69825","longitude":"145.05967"},{"name":"Forest Lake","countryCode":"AU","latitude":"-27.62563","longitude":"152.96883"},{"name":"Sunnybank Hills","countryCode":"AU","latitude":"-27.61025","longitude":"153.05388"},{"name":"Rochedale South","countryCode":"AU","latitude":"-27.59521","longitude":"153.12332"},{"name":"Keilor East","countryCode":"AU","latitude":"-37.73261","longitude":"144.86504"},{"name":"Cranbourne East","countryCode":"AU","latitude":"-38.11531","longitude":"145.29814"},{"name":"Cranbourne North","countryCode":"AU","latitude":"-38.07758","longitude":"145.29871"},{"name":"Cranbourne West","countryCode":"AU","latitude":"-38.0965","longitude":"145.26707"},{"name":"Narre Warren South","countryCode":"AU","latitude":"-38.04369","longitude":"145.2923"},{"name":"Dandenong North","countryCode":"AU","latitude":"-37.96649","longitude":"145.2081"},{"name":"Frankston South","countryCode":"AU","latitude":"-38.16604","longitude":"145.13643"},{"name":"Sunshine West","countryCode":"AU","latitude":"-37.79117","longitude":"144.81637"},{"name":"Altona Meadows","countryCode":"AU","latitude":"-37.88413","longitude":"144.78367"},{"name":"Taylors Hill","countryCode":"AU","latitude":"-37.70988","longitude":"144.75483"},{"name":"Hurstville","countryCode":"AU","latitude":"-33.9677","longitude":"151.10149"},{"name":"West Pennant Hills","countryCode":"AU","latitude":"-33.7457","longitude":"151.04764"},{"name":"Melbourne City Centre","countryCode":"AU","latitude":"-37.81501","longitude":"144.96657"},{"name":"Adelaide city centre","countryCode":"AU","latitude":"-34.92873","longitude":"138.60334"},{"name":"Wollongong city centre","countryCode":"AU","latitude":"-34.4279","longitude":"150.89268"},{"name":"Tanki Leendert","countryCode":"AW","latitude":"12.53914","longitude":"-70.02004"},{"name":"San Nicolas","countryCode":"AW","latitude":"12.43624","longitude":"-69.90713"},{"name":"Oranjestad","countryCode":"AW","latitude":"12.52398","longitude":"-70.02703"},{"name":"Mariehamn","countryCode":"AX","latitude":"60.09726","longitude":"19.93481"},{"name":"Xankandi","countryCode":"AZ","latitude":"39.8177","longitude":"46.7528"},{"name":"Əhmədbəyli","countryCode":"AZ","latitude":"39.88074","longitude":"48.39158"},{"name":"Şuşa","countryCode":"AZ","latitude":"39.76006","longitude":"46.74989"},{"name":"Salyan","countryCode":"AZ","latitude":"39.59621","longitude":"48.98479"},{"name":"Saatlı","countryCode":"AZ","latitude":"39.93214","longitude":"48.36892"},{"name":"Neftçala","countryCode":"AZ","latitude":"39.3768","longitude":"49.247"},{"name":"Nakhchivan","countryCode":"AZ","latitude":"39.20889","longitude":"45.41222"},{"name":"Lerik","countryCode":"AZ","latitude":"38.77388","longitude":"48.41497"},{"name":"Lankaran","countryCode":"AZ","latitude":"38.75428","longitude":"48.85062"},{"name":"Imishli","countryCode":"AZ","latitude":"39.87095","longitude":"48.05995"},{"name":"Fizuli","countryCode":"AZ","latitude":"39.60094","longitude":"47.14529"},{"name":"Jalilabad","countryCode":"AZ","latitude":"39.20963","longitude":"48.49186"},{"name":"Pushkino","countryCode":"AZ","latitude":"39.45833","longitude":"48.545"},{"name":"Beylagan","countryCode":"AZ","latitude":"39.77556","longitude":"47.61861"},{"name":"Astara","countryCode":"AZ","latitude":"38.45598","longitude":"48.87498"},{"name":"Şirvan","countryCode":"AZ","latitude":"39.93778","longitude":"48.929"},{"name":"Ağdam","countryCode":"AZ","latitude":"39.99096","longitude":"46.92736"},{"name":"Zaqatala","countryCode":"AZ","latitude":"41.6316","longitude":"46.64479"},{"name":"Zabrat","countryCode":"AZ","latitude":"40.47746","longitude":"49.94174"},{"name":"Yevlakh","countryCode":"AZ","latitude":"40.61832","longitude":"47.15014"},{"name":"Göygöl","countryCode":"AZ","latitude":"40.58584","longitude":"46.3189"},{"name":"Xaçmaz","countryCode":"AZ","latitude":"41.46426","longitude":"48.80565"},{"name":"Ujar","countryCode":"AZ","latitude":"40.51902","longitude":"47.65423"},{"name":"Tovuz","countryCode":"AZ","latitude":"40.99249","longitude":"45.62838"},{"name":"Terter","countryCode":"AZ","latitude":"40.34201","longitude":"46.93161"},{"name":"Sumqayıt","countryCode":"AZ","latitude":"40.58972","longitude":"49.66861"},{"name":"Qaraçuxur","countryCode":"AZ","latitude":"40.39667","longitude":"49.97361"},{"name":"Shamkhor","countryCode":"AZ","latitude":"40.82975","longitude":"46.0178"},{"name":"Shamakhi","countryCode":"AZ","latitude":"40.63141","longitude":"48.64137"},{"name":"Sheki","countryCode":"AZ","latitude":"41.19194","longitude":"47.17056"},{"name":"Sabunçu","countryCode":"AZ","latitude":"40.4425","longitude":"49.94806"},{"name":"Sabirabad","countryCode":"AZ","latitude":"40.00869","longitude":"48.47701"},{"name":"Qusar","countryCode":"AZ","latitude":"41.4275","longitude":"48.4302"},{"name":"Quba","countryCode":"AZ","latitude":"41.36108","longitude":"48.51341"},{"name":"Hacıqabul","countryCode":"AZ","latitude":"40.03874","longitude":"48.94286"},{"name":"Qazax","countryCode":"AZ","latitude":"41.09246","longitude":"45.36561"},{"name":"Hacı Zeynalabdin","countryCode":"AZ","latitude":"40.62333","longitude":"49.55861"},{"name":"Mingelchaur","countryCode":"AZ","latitude":"40.76395","longitude":"47.05953"},{"name":"Maştağa","countryCode":"AZ","latitude":"40.52983","longitude":"50.00616"},{"name":"Mardakan","countryCode":"AZ","latitude":"40.49182","longitude":"50.14292"},{"name":"Lokbatan","countryCode":"AZ","latitude":"40.3256","longitude":"49.73376"},{"name":"Kyurdarmir","countryCode":"AZ","latitude":"40.34257","longitude":"48.15649"},{"name":"Khirdalan","countryCode":"AZ","latitude":"40.44808","longitude":"49.75502"},{"name":"İsmayıllı","countryCode":"AZ","latitude":"40.78485","longitude":"48.15141"},{"name":"Yeni Suraxanı","countryCode":"AZ","latitude":"40.43026","longitude":"50.03598"},{"name":"Göyçay","countryCode":"AZ","latitude":"40.65055","longitude":"47.74219"},{"name":"Hövsan","countryCode":"AZ","latitude":"40.37444","longitude":"50.08528"},{"name":"Ganja","countryCode":"AZ","latitude":"40.68278","longitude":"46.36056"},{"name":"Divichibazar","countryCode":"AZ","latitude":"41.20117","longitude":"48.98712"},{"name":"Buzovna","countryCode":"AZ","latitude":"40.51903","longitude":"50.11438"},{"name":"Biny Selo","countryCode":"AZ","latitude":"40.45076","longitude":"50.08686"},{"name":"Barda","countryCode":"AZ","latitude":"40.37577","longitude":"47.12619"},{"name":"Bilajari","countryCode":"AZ","latitude":"40.4444","longitude":"49.80566"},{"name":"Baku","countryCode":"AZ","latitude":"40.37767","longitude":"49.89201"},{"name":"Amirdzhan","countryCode":"AZ","latitude":"40.42639","longitude":"49.98361"},{"name":"Aghsu","countryCode":"AZ","latitude":"40.57028","longitude":"48.40087"},{"name":"Ağdaş","countryCode":"AZ","latitude":"40.64699","longitude":"47.4738"},{"name":"Agdzhabedy","countryCode":"AZ","latitude":"40.05015","longitude":"47.45937"},{"name":"Bakıxanov","countryCode":"AZ","latitude":"40.41894","longitude":"49.96693"},{"name":"Zenica","countryCode":"BA","latitude":"44.20169","longitude":"17.90397"},{"name":"Visoko","countryCode":"BA","latitude":"43.98889","longitude":"18.17806"},{"name":"Velika Kladuša","countryCode":"BA","latitude":"45.18497","longitude":"15.80579"},{"name":"Tuzla","countryCode":"BA","latitude":"44.53842","longitude":"18.66709"},{"name":"Trebinje","countryCode":"BA","latitude":"42.71197","longitude":"18.34362"},{"name":"Travnik","countryCode":"BA","latitude":"44.22637","longitude":"17.66583"},{"name":"Sarajevo","countryCode":"BA","latitude":"43.84864","longitude":"18.35644"},{"name":"Prijedor","countryCode":"BA","latitude":"44.97991","longitude":"16.71401"},{"name":"Mostar","countryCode":"BA","latitude":"43.34333","longitude":"17.80806"},{"name":"Lukavac","countryCode":"BA","latitude":"44.54245","longitude":"18.52618"},{"name":"Gradačac","countryCode":"BA","latitude":"44.87851","longitude":"18.42764"},{"name":"Gračanica","countryCode":"BA","latitude":"44.70307","longitude":"18.3101"},{"name":"Goražde","countryCode":"BA","latitude":"43.66795","longitude":"18.97564"},{"name":"Doboj","countryCode":"BA","latitude":"44.73179","longitude":"18.08698"},{"name":"Cazin","countryCode":"BA","latitude":"44.96694","longitude":"15.94306"},{"name":"Bugojno","countryCode":"BA","latitude":"44.05722","longitude":"17.45083"},{"name":"Brčko","countryCode":"BA","latitude":"44.86995","longitude":"18.81012"},{"name":"Bosanska Krupa","countryCode":"BA","latitude":"44.8825","longitude":"16.15139"},{"name":"Bijeljina","countryCode":"BA","latitude":"44.75874","longitude":"19.21437"},{"name":"Bihać","countryCode":"BA","latitude":"44.81694","longitude":"15.87083"},{"name":"Banja Luka","countryCode":"BA","latitude":"44.77842","longitude":"17.19386"},{"name":"Konjic","countryCode":"BA","latitude":"43.65126","longitude":"17.96082"},{"name":"Bridgetown","countryCode":"BB","latitude":"13.10732","longitude":"-59.62021"},{"name":"Thākurgaon","countryCode":"BD","latitude":"26.03097","longitude":"88.46989"},{"name":"Teknāf","countryCode":"BD","latitude":"20.85829","longitude":"92.29773"},{"name":"Tungi","countryCode":"BD","latitude":"23.89154","longitude":"90.40232"},{"name":"Sylhet","countryCode":"BD","latitude":"24.89904","longitude":"91.87198"},{"name":"Dohār","countryCode":"BD","latitude":"23.59311","longitude":"90.14251"},{"name":"Jamālpur","countryCode":"BD","latitude":"24.91965","longitude":"89.94812"},{"name":"Shibganj","countryCode":"BD","latitude":"25.00146","longitude":"89.32266"},{"name":"Shibganj","countryCode":"BD","latitude":"24.68501","longitude":"88.15638"},{"name":"Sātkhira","countryCode":"BD","latitude":"22.70817","longitude":"89.07185"},{"name":"Sirajganj","countryCode":"BD","latitude":"24.45771","longitude":"89.70802"},{"name":"Netrakona","countryCode":"BD","latitude":"24.88352","longitude":"90.72898"},{"name":"Narsingdi","countryCode":"BD","latitude":"23.92298","longitude":"90.71768"},{"name":"Sandwīp","countryCode":"BD","latitude":"22.51409","longitude":"91.45491"},{"name":"Shāhzādpur","countryCode":"BD","latitude":"24.17687","longitude":"89.5988"},{"name":"Rāmganj","countryCode":"BD","latitude":"23.1006","longitude":"90.84989"},{"name":"Rājshāhi","countryCode":"BD","latitude":"24.374","longitude":"88.60114"},{"name":"Pirojpur","countryCode":"BD","latitude":"22.57965","longitude":"89.97521"},{"name":"Panchagarh","countryCode":"BD","latitude":"26.33338","longitude":"88.55777"},{"name":"Patiya","countryCode":"BD","latitude":"22.29543","longitude":"91.979"},{"name":"Parbatipur","countryCode":"BD","latitude":"25.66369","longitude":"88.93093"},{"name":"Nārāyanganj","countryCode":"BD","latitude":"23.61352","longitude":"90.50298"},{"name":"Nālchiti","countryCode":"BD","latitude":"22.63696","longitude":"90.27195"},{"name":"Nāgarpur","countryCode":"BD","latitude":"24.05783","longitude":"89.87696"},{"name":"Nageswari","countryCode":"BD","latitude":"25.96817","longitude":"89.69153"},{"name":"Mymensingh","countryCode":"BD","latitude":"24.75636","longitude":"90.40646"},{"name":"Muktāgācha","countryCode":"BD","latitude":"24.76484","longitude":"90.25698"},{"name":"Mirzāpur","countryCode":"BD","latitude":"24.10287","longitude":"90.09841"},{"name":"Maulavi Bāzār","countryCode":"BD","latitude":"24.48888","longitude":"91.77075"},{"name":"Morrelgonj","countryCode":"BD","latitude":"22.45566","longitude":"89.85584"},{"name":"Mehendiganj","countryCode":"BD","latitude":"22.82257","longitude":"90.52859"},{"name":"Mathba","countryCode":"BD","latitude":"22.28616","longitude":"89.95883"},{"name":"Lalmonirhat","countryCode":"BD","latitude":"25.91719","longitude":"89.44595"},{"name":"Lākshām","countryCode":"BD","latitude":"23.24018","longitude":"91.12143"},{"name":"Comilla","countryCode":"BD","latitude":"23.46186","longitude":"91.18503"},{"name":"Rangpur","countryCode":"BD","latitude":"25.74664","longitude":"89.25166"},{"name":"Kushtia","countryCode":"BD","latitude":"23.9028","longitude":"89.11943"},{"name":"Kālīganj","countryCode":"BD","latitude":"23.40964","longitude":"89.13801"},{"name":"Jhingergācha","countryCode":"BD","latitude":"23.11134","longitude":"89.09061"},{"name":"Joypur Hāt","countryCode":"BD","latitude":"25.10147","longitude":"89.02734"},{"name":"Ishurdi","countryCode":"BD","latitude":"24.12858","longitude":"89.06573"},{"name":"Habiganj","countryCode":"BD","latitude":"24.38044","longitude":"91.41299"},{"name":"Gaurnadi","countryCode":"BD","latitude":"22.97372","longitude":"90.22376"},{"name":"Gafargaon","countryCode":"BD","latitude":"24.432","longitude":"90.5585"},{"name":"Feni","countryCode":"BD","latitude":"23.0144","longitude":"91.3966"},{"name":"Rāipur","countryCode":"BD","latitude":"23.0391","longitude":"90.76808"},{"name":"Sarankhola","countryCode":"BD","latitude":"22.31006","longitude":"89.79113"},{"name":"Dhaka","countryCode":"BD","latitude":"23.7104","longitude":"90.40744"},{"name":"Chilmāri","countryCode":"BD","latitude":"25.55613","longitude":"89.67097"},{"name":"Chhāgalnāiya","countryCode":"BD","latitude":"23.02475","longitude":"91.51091"},{"name":"Lālmohan","countryCode":"BD","latitude":"22.33774","longitude":"90.73708"},{"name":"Khagrachhari","countryCode":"BD","latitude":"23.10787","longitude":"91.97007"},{"name":"Chhātak","countryCode":"BD","latitude":"25.03852","longitude":"91.66958"},{"name":"Bhātpāra Abhaynagar","countryCode":"BD","latitude":"23.01472","longitude":"89.43936"},{"name":"Bherāmāra","countryCode":"BD","latitude":"24.02452","longitude":"88.99234"},{"name":"Bhairab Bāzār","countryCode":"BD","latitude":"24.0524","longitude":"90.9764"},{"name":"Bāndarban","countryCode":"BD","latitude":"22.19534","longitude":"92.21946"},{"name":"Kālia","countryCode":"BD","latitude":"23.043","longitude":"89.63094"},{"name":"Baniachang","countryCode":"BD","latitude":"24.51863","longitude":"91.35787"},{"name":"Bājitpur","countryCode":"BD","latitude":"24.21623","longitude":"90.95002"},{"name":"Bagerhat","countryCode":"BD","latitude":"22.65657","longitude":"89.79123"},{"name":"Badarganj","countryCode":"BD","latitude":"25.67419","longitude":"89.05377"},{"name":"Narail","countryCode":"BD","latitude":"23.15509","longitude":"89.49515"},{"name":"Tungipāra","countryCode":"BD","latitude":"22.89983","longitude":"89.90326"},{"name":"Sonārgaon","countryCode":"BD","latitude":"23.65","longitude":"90.61667"},{"name":"Sarishābāri","countryCode":"BD","latitude":"24.75127","longitude":"89.83126"},{"name":"Sakhipur","countryCode":"BD","latitude":"24.31988","longitude":"90.16943"},{"name":"Raojān","countryCode":"BD","latitude":"22.53511","longitude":"91.91919"},{"name":"Phultala","countryCode":"BD","latitude":"22.71673","longitude":"89.51194"},{"name":"Pālang","countryCode":"BD","latitude":"23.21824","longitude":"90.35076"},{"name":"Pār Naogaon","countryCode":"BD","latitude":"24.80418","longitude":"88.94875"},{"name":"Nabīnagar","countryCode":"BD","latitude":"23.88791","longitude":"90.96792"},{"name":"Lakshmīpur","countryCode":"BD","latitude":"22.9443","longitude":"90.83005"},{"name":"Kesabpur","countryCode":"BD","latitude":"22.90725","longitude":"89.21954"},{"name":"Hājīganj","countryCode":"BD","latitude":"23.25191","longitude":"90.85508"},{"name":"Farīdpur","countryCode":"BD","latitude":"23.60612","longitude":"89.84064"},{"name":"Dinājpur","countryCode":"BD","latitude":"25.62745","longitude":"88.63779"},{"name":"Uttar Char Fasson","countryCode":"BD","latitude":"22.22647","longitude":"90.71275"},{"name":"Chattogram","countryCode":"BD","latitude":"22.3384","longitude":"91.83168"},{"name":"Char Bhadrāsan","countryCode":"BD","latitude":"23.30916","longitude":"90.22698"},{"name":"Bera","countryCode":"BD","latitude":"24.07821","longitude":"89.63262"},{"name":"Burhānuddin","countryCode":"BD","latitude":"22.49518","longitude":"90.72391"},{"name":"Sātkania","countryCode":"BD","latitude":"22.07639","longitude":"92.04955"},{"name":"Cox’s Bāzār","countryCode":"BD","latitude":"21.43973","longitude":"92.00955"},{"name":"Khulna","countryCode":"BD","latitude":"22.80979","longitude":"89.56439"},{"name":"Bhola","countryCode":"BD","latitude":"22.68759","longitude":"90.64403"},{"name":"Barishal","countryCode":"BD","latitude":"22.70497","longitude":"90.37013"},{"name":"Jessore","countryCode":"BD","latitude":"23.16971","longitude":"89.21371"},{"name":"Pābna","countryCode":"BD","latitude":"24.00644","longitude":"89.2372"},{"name":"Tāngāil","countryCode":"BD","latitude":"24.24984","longitude":"89.91655"},{"name":"Bogra","countryCode":"BD","latitude":"24.85098","longitude":"89.37108"},{"name":"Pīrgaaj","countryCode":"BD","latitude":"25.85587","longitude":"88.35943"},{"name":"Nawābganj","countryCode":"BD","latitude":"24.59025","longitude":"88.27444"},{"name":"Madaripur","countryCode":"BD","latitude":"23.17097","longitude":"90.20935"},{"name":"Sherpur","countryCode":"BD","latitude":"25.01881","longitude":"90.01751"},{"name":"Kishorganj","countryCode":"BD","latitude":"24.43944","longitude":"90.78291"},{"name":"Manikchari","countryCode":"BD","latitude":"22.83957","longitude":"91.84128"},{"name":"Bhāndāria","countryCode":"BD","latitude":"22.48898","longitude":"90.06273"},{"name":"Bibir Hat","countryCode":"BD","latitude":"22.68347","longitude":"91.79058"},{"name":"Saidpur","countryCode":"BD","latitude":"25.77769","longitude":"88.89169"},{"name":"Puthia","countryCode":"BD","latitude":"24.36537","longitude":"88.83431"},{"name":"Natore","countryCode":"BD","latitude":"24.41112","longitude":"88.98673"},{"name":"Azimpur","countryCode":"BD","latitude":"23.7298","longitude":"90.3854"},{"name":"Paotana Hat","countryCode":"BD","latitude":"25.66473","longitude":"89.5026"},{"name":"Paltan","countryCode":"BD","latitude":"23.73625","longitude":"90.41426"},{"name":"Joymontop","countryCode":"BD","latitude":"23.78789","longitude":"90.16472"},{"name":"Zwijndrecht","countryCode":"BE","latitude":"51.21979","longitude":"4.32664"},{"name":"Zwevegem","countryCode":"BE","latitude":"50.81268","longitude":"3.33848"},{"name":"Zottegem","countryCode":"BE","latitude":"50.86955","longitude":"3.81052"},{"name":"Zonhoven","countryCode":"BE","latitude":"50.99064","longitude":"5.36819"},{"name":"Zolder","countryCode":"BE","latitude":"51.02455","longitude":"5.30983"},{"name":"Zemst","countryCode":"BE","latitude":"50.98318","longitude":"4.46079"},{"name":"Zele","countryCode":"BE","latitude":"51.06566","longitude":"4.0403"},{"name":"Zedelgem","countryCode":"BE","latitude":"51.14236","longitude":"3.1368"},{"name":"Zaventem","countryCode":"BE","latitude":"50.88365","longitude":"4.47298"},{"name":"Wondelgem","countryCode":"BE","latitude":"51.08705","longitude":"3.70909"},{"name":"Woluwe-Saint-Lambert","countryCode":"BE","latitude":"50.84389","longitude":"4.42912"},{"name":"Wilrijk","countryCode":"BE","latitude":"51.16734","longitude":"4.39513"},{"name":"Willebroek","countryCode":"BE","latitude":"51.06041","longitude":"4.36019"},{"name":"Wevelgem","countryCode":"BE","latitude":"50.8","longitude":"3.16667"},{"name":"Wetteren","countryCode":"BE","latitude":"51.00526","longitude":"3.88341"},{"name":"Westerlo","countryCode":"BE","latitude":"51.09049","longitude":"4.91544"},{"name":"Wervik","countryCode":"BE","latitude":"50.78069","longitude":"3.03854"},{"name":"Wavre","countryCode":"BE","latitude":"50.71717","longitude":"4.60138"},{"name":"Watermael-Boitsfort","countryCode":"BE","latitude":"50.80154","longitude":"4.41436"},{"name":"Waterloo","countryCode":"BE","latitude":"50.71469","longitude":"4.3991"},{"name":"Waregem","countryCode":"BE","latitude":"50.88898","longitude":"3.42756"},{"name":"Walcourt","countryCode":"BE","latitude":"50.25401","longitude":"4.43796"},{"name":"Visé","countryCode":"BE","latitude":"50.7376","longitude":"5.69907"},{"name":"Vilvoorde","countryCode":"BE","latitude":"50.92814","longitude":"4.42938"},{"name":"Verviers","countryCode":"BE","latitude":"50.58907","longitude":"5.86241"},{"name":"Uccle","countryCode":"BE","latitude":"50.80225","longitude":"4.33943"},{"name":"Turnhout","countryCode":"BE","latitude":"51.32254","longitude":"4.94471"},{"name":"Tubize","countryCode":"BE","latitude":"50.69059","longitude":"4.2009"},{"name":"Tournai","countryCode":"BE","latitude":"50.60715","longitude":"3.38932"},{"name":"Torhout","countryCode":"BE","latitude":"51.0656","longitude":"3.10085"},{"name":"Tongeren","countryCode":"BE","latitude":"50.78054","longitude":"5.46484"},{"name":"Tienen","countryCode":"BE","latitude":"50.80745","longitude":"4.9378"},{"name":"Tielt","countryCode":"BE","latitude":"50.99931","longitude":"3.32707"},{"name":"Tessenderlo","countryCode":"BE","latitude":"51.06513","longitude":"5.08856"},{"name":"Tervuren","countryCode":"BE","latitude":"50.82372","longitude":"4.51418"},{"name":"Temse","countryCode":"BE","latitude":"51.12794","longitude":"4.21372"},{"name":"Stekene","countryCode":"BE","latitude":"51.2099","longitude":"4.03651"},{"name":"Stabroek","countryCode":"BE","latitude":"51.33189","longitude":"4.37127"},{"name":"Soumagne","countryCode":"BE","latitude":"50.61385","longitude":"5.74679"},{"name":"Soignies","countryCode":"BE","latitude":"50.57904","longitude":"4.07129"},{"name":"Sint-Truiden","countryCode":"BE","latitude":"50.81679","longitude":"5.18647"},{"name":"Sint-Pieters-Leeuw","countryCode":"BE","latitude":"50.77926","longitude":"4.24355"},{"name":"Sint-Niklaas","countryCode":"BE","latitude":"51.16509","longitude":"4.1437"},{"name":"Sint-Kruis","countryCode":"BE","latitude":"51.21399","longitude":"3.24949"},{"name":"Sint-Katelijne-Waver","countryCode":"BE","latitude":"51.06691","longitude":"4.53469"},{"name":"Sint-Gillis-Waas","countryCode":"BE","latitude":"51.21914","longitude":"4.12374"},{"name":"Sint-Genesius-Rode","countryCode":"BE","latitude":"50.74645","longitude":"4.35754"},{"name":"Sint-Andries","countryCode":"BE","latitude":"51.19696","longitude":"3.17891"},{"name":"Sint-Amandsberg","countryCode":"BE","latitude":"51.05947","longitude":"3.74943"},{"name":"Seraing","countryCode":"BE","latitude":"50.58362","longitude":"5.50115"},{"name":"Schoten","countryCode":"BE","latitude":"51.25251","longitude":"4.50268"},{"name":"Schilde","countryCode":"BE","latitude":"51.24107","longitude":"4.58336"},{"name":"Schaerbeek","countryCode":"BE","latitude":"50.86935","longitude":"4.37737"},{"name":"Saint-Nicolas","countryCode":"BE","latitude":"50.62837","longitude":"5.53243"},{"name":"Saint-Josse-ten-Noode","countryCode":"BE","latitude":"50.8538","longitude":"4.37282"},{"name":"Saint-Gilles","countryCode":"BE","latitude":"50.82763","longitude":"4.34389"},{"name":"Saint-Ghislain","countryCode":"BE","latitude":"50.44816","longitude":"3.81886"},{"name":"Rotselaar","countryCode":"BE","latitude":"50.95302","longitude":"4.71665"},{"name":"Ronse","countryCode":"BE","latitude":"50.74574","longitude":"3.6005"},{"name":"Roeselare","countryCode":"BE","latitude":"50.94653","longitude":"3.12269"},{"name":"Rixensart","countryCode":"BE","latitude":"50.71229","longitude":"4.52529"},{"name":"Riemst","countryCode":"BE","latitude":"50.80995","longitude":"5.60131"},{"name":"Ranst","countryCode":"BE","latitude":"51.18983","longitude":"4.56533"},{"name":"Quaregnon","countryCode":"BE","latitude":"50.44067","longitude":"3.8653"},{"name":"Puurs","countryCode":"BE","latitude":"51.07409","longitude":"4.28844"},{"name":"Putte","countryCode":"BE","latitude":"51.05337","longitude":"4.63263"},{"name":"Poperinge","countryCode":"BE","latitude":"50.85386","longitude":"2.72659"},{"name":"Pont-à-Celles","countryCode":"BE","latitude":"50.50518","longitude":"4.36887"},{"name":"Péruwelz","countryCode":"BE","latitude":"50.50819","longitude":"3.59373"},{"name":"Peer","countryCode":"BE","latitude":"51.1303","longitude":"5.45952"},{"name":"Overijse","countryCode":"BE","latitude":"50.77436","longitude":"4.53461"},{"name":"Oupeye","countryCode":"BE","latitude":"50.71184","longitude":"5.6468"},{"name":"Oudenaarde","countryCode":"BE","latitude":"50.85168","longitude":"3.60891"},{"name":"Oostkamp","countryCode":"BE","latitude":"51.15432","longitude":"3.23128"},{"name":"Ostend","countryCode":"BE","latitude":"51.21551","longitude":"2.927"},{"name":"Nivelles","countryCode":"BE","latitude":"50.59833","longitude":"4.32848"},{"name":"Ninove","countryCode":"BE","latitude":"50.82776","longitude":"4.02657"},{"name":"Nijlen","countryCode":"BE","latitude":"51.16096","longitude":"4.67008"},{"name":"Neerpelt","countryCode":"BE","latitude":"51.22807","longitude":"5.4427"},{"name":"Namur","countryCode":"BE","latitude":"50.4669","longitude":"4.86746"},{"name":"Mouscron","countryCode":"BE","latitude":"50.74497","longitude":"3.20639"},{"name":"Mortsel","countryCode":"BE","latitude":"51.16697","longitude":"4.45127"},{"name":"Morlanwelz-Mariemont","countryCode":"BE","latitude":"50.45502","longitude":"4.24519"},{"name":"Montignies-sur-Sambre","countryCode":"BE","latitude":"50.41081","longitude":"4.49109"},{"name":"Mons","countryCode":"BE","latitude":"50.45413","longitude":"3.95229"},{"name":"Molenbeek-Saint-Jean","countryCode":"BE","latitude":"50.8499","longitude":"4.31248"},{"name":"Mol","countryCode":"BE","latitude":"51.19188","longitude":"5.11662"},{"name":"Middelkerke","countryCode":"BE","latitude":"51.18532","longitude":"2.82077"},{"name":"Merksem","countryCode":"BE","latitude":"51.24623","longitude":"4.44903"},{"name":"Merelbeke","countryCode":"BE","latitude":"50.99447","longitude":"3.74621"},{"name":"Menen","countryCode":"BE","latitude":"50.79722","longitude":"3.12245"},{"name":"Meise","countryCode":"BE","latitude":"50.93934","longitude":"4.32655"},{"name":"Mechelen-aan-de-Maas","countryCode":"BE","latitude":"50.96589","longitude":"5.69144"},{"name":"Mechelen","countryCode":"BE","latitude":"51.02574","longitude":"4.47762"},{"name":"Mariakerke","countryCode":"BE","latitude":"51.07476","longitude":"3.68289"},{"name":"Marcinelle","countryCode":"BE","latitude":"50.39216","longitude":"4.44388"},{"name":"Marchienne-au-Pont","countryCode":"BE","latitude":"50.40573","longitude":"4.3953"},{"name":"Marche-en-Famenne","countryCode":"BE","latitude":"50.22678","longitude":"5.34416"},{"name":"Manage","countryCode":"BE","latitude":"50.50312","longitude":"4.23589"},{"name":"Maldegem","countryCode":"BE","latitude":"51.20737","longitude":"3.44511"},{"name":"Maasmechelen","countryCode":"BE","latitude":"50.96545","longitude":"5.69452"},{"name":"Maaseik","countryCode":"BE","latitude":"51.09802","longitude":"5.78379"},{"name":"Louvain-la-Neuve","countryCode":"BE","latitude":"50.66829","longitude":"4.61443"},{"name":"Lommel","countryCode":"BE","latitude":"51.23074","longitude":"5.31349"},{"name":"Lokeren","countryCode":"BE","latitude":"51.10364","longitude":"3.99339"},{"name":"Lochristi","countryCode":"BE","latitude":"51.09644","longitude":"3.83194"},{"name":"Lille","countryCode":"BE","latitude":"51.24197","longitude":"4.82313"},{"name":"Lier","countryCode":"BE","latitude":"51.13128","longitude":"4.57041"},{"name":"Liège","countryCode":"BE","latitude":"50.63373","longitude":"5.56749"},{"name":"Leuven","countryCode":"BE","latitude":"50.87959","longitude":"4.70093"},{"name":"Lessines","countryCode":"BE","latitude":"50.71104","longitude":"3.83579"},{"name":"Lede","countryCode":"BE","latitude":"50.96626","longitude":"3.98594"},{"name":"Lebbeke","countryCode":"BE","latitude":"51.00464","longitude":"4.13457"},{"name":"Lanaken","countryCode":"BE","latitude":"50.89318","longitude":"5.6468"},{"name":"La Louvière","countryCode":"BE","latitude":"50.48657","longitude":"4.18785"},{"name":"Kortrijk","countryCode":"BE","latitude":"50.82803","longitude":"3.26487"},{"name":"Kortenberg","countryCode":"BE","latitude":"50.88982","longitude":"4.54353"},{"name":"Kontich","countryCode":"BE","latitude":"51.13213","longitude":"4.44706"},{"name":"Koksijde","countryCode":"BE","latitude":"51.11642","longitude":"2.63772"},{"name":"Koersel","countryCode":"BE","latitude":"51.05909","longitude":"5.27121"},{"name":"Koekelberg","countryCode":"BE","latitude":"50.86117","longitude":"4.33136"},{"name":"Knokke-Heist","countryCode":"BE","latitude":"51.35","longitude":"3.26667"},{"name":"Kessel-Lo","countryCode":"BE","latitude":"50.88549","longitude":"4.73717"},{"name":"Kasterlee","countryCode":"BE","latitude":"51.24118","longitude":"4.96651"},{"name":"Kapellen","countryCode":"BE","latitude":"51.31377","longitude":"4.43539"},{"name":"Kalmthout","countryCode":"BE","latitude":"51.38442","longitude":"4.47556"},{"name":"Jumet","countryCode":"BE","latitude":"50.4422","longitude":"4.43745"},{"name":"Jette","countryCode":"BE","latitude":"50.87309","longitude":"4.33419"},{"name":"Jambes","countryCode":"BE","latitude":"50.45636","longitude":"4.87166"},{"name":"Izegem","countryCode":"BE","latitude":"50.91396","longitude":"3.21378"},{"name":"Ixelles","countryCode":"BE","latitude":"50.83333","longitude":"4.36667"},{"name":"Ieper","countryCode":"BE","latitude":"50.85114","longitude":"2.88569"},{"name":"Huy","countryCode":"BE","latitude":"50.51894","longitude":"5.23284"},{"name":"Houthalen","countryCode":"BE","latitude":"51.03427","longitude":"5.37429"},{"name":"Hoogstraten","countryCode":"BE","latitude":"51.40029","longitude":"4.76034"},{"name":"Hoboken","countryCode":"BE","latitude":"51.17611","longitude":"4.34844"},{"name":"Heverlee","countryCode":"BE","latitude":"50.86426","longitude":"4.69597"},{"name":"Heusy","countryCode":"BE","latitude":"50.57457","longitude":"5.86618"},{"name":"Heusden","countryCode":"BE","latitude":"51.03664","longitude":"5.28013"},{"name":"Herzele","countryCode":"BE","latitude":"50.88681","longitude":"3.89014"},{"name":"Herve","countryCode":"BE","latitude":"50.64083","longitude":"5.79353"},{"name":"Herstal","countryCode":"BE","latitude":"50.66415","longitude":"5.62346"},{"name":"Herentals","countryCode":"BE","latitude":"51.17655","longitude":"4.83248"},{"name":"Herent","countryCode":"BE","latitude":"50.90861","longitude":"4.67056"},{"name":"Helchteren","countryCode":"BE","latitude":"51.05591","longitude":"5.38244"},{"name":"Heist-op-den-Berg","countryCode":"BE","latitude":"51.07537","longitude":"4.72827"},{"name":"Hasselt","countryCode":"BE","latitude":"50.93106","longitude":"5.33781"},{"name":"Harelbeke","countryCode":"BE","latitude":"50.85343","longitude":"3.30935"},{"name":"Hamme","countryCode":"BE","latitude":"51.09822","longitude":"4.13705"},{"name":"Halle","countryCode":"BE","latitude":"50.73385","longitude":"4.23454"},{"name":"Haaltert","countryCode":"BE","latitude":"50.90634","longitude":"4.00093"},{"name":"Grivegnée","countryCode":"BE","latitude":"50.62148","longitude":"5.61101"},{"name":"Grimbergen","countryCode":"BE","latitude":"50.93409","longitude":"4.37213"},{"name":"Gilly","countryCode":"BE","latitude":"50.42449","longitude":"4.4789"},{"name":"Geraardsbergen","countryCode":"BE","latitude":"50.77343","longitude":"3.88223"},{"name":"Gentbrugge","countryCode":"BE","latitude":"51.03692","longitude":"3.76509"},{"name":"Gent","countryCode":"BE","latitude":"51.05","longitude":"3.71667"},{"name":"Genk","countryCode":"BE","latitude":"50.965","longitude":"5.50082"},{"name":"Gembloux","countryCode":"BE","latitude":"50.56149","longitude":"4.69889"},{"name":"Geel","countryCode":"BE","latitude":"51.16557","longitude":"4.98917"},{"name":"Ganshoren","countryCode":"BE","latitude":"50.87065","longitude":"4.31531"},{"name":"Frameries","countryCode":"BE","latitude":"50.40578","longitude":"3.89603"},{"name":"Forest","countryCode":"BE","latitude":"50.81678","longitude":"4.32775"},{"name":"Fleurus","countryCode":"BE","latitude":"50.48351","longitude":"4.55006"},{"name":"Fléron","countryCode":"BE","latitude":"50.61516","longitude":"5.68062"},{"name":"Flémalle-Haute","countryCode":"BE","latitude":"50.59994","longitude":"5.44471"},{"name":"Evergem","countryCode":"BE","latitude":"51.11306","longitude":"3.70976"},{"name":"Evere","countryCode":"BE","latitude":"50.87441","longitude":"4.39905"},{"name":"Eupen","countryCode":"BE","latitude":"50.6279","longitude":"6.03647"},{"name":"Etterbeek","countryCode":"BE","latitude":"50.83272","longitude":"4.38835"},{"name":"Ekeren","countryCode":"BE","latitude":"51.28087","longitude":"4.41813"},{"name":"Eeklo","countryCode":"BE","latitude":"51.18703","longitude":"3.55654"},{"name":"Edegem","countryCode":"BE","latitude":"51.15662","longitude":"4.44504"},{"name":"Duffel","countryCode":"BE","latitude":"51.09554","longitude":"4.50903"},{"name":"Dour","countryCode":"BE","latitude":"50.39583","longitude":"3.77792"},{"name":"Dilbeek","countryCode":"BE","latitude":"50.84799","longitude":"4.25972"},{"name":"Diksmuide","countryCode":"BE","latitude":"51.03248","longitude":"2.86384"},{"name":"Diest","countryCode":"BE","latitude":"50.98923","longitude":"5.05062"},{"name":"Diepenbeek","countryCode":"BE","latitude":"50.90769","longitude":"5.41875"},{"name":"Deurne","countryCode":"BE","latitude":"51.22134","longitude":"4.46595"},{"name":"Destelbergen","countryCode":"BE","latitude":"51.05952","longitude":"3.79899"},{"name":"Dendermonde","countryCode":"BE","latitude":"51.02869","longitude":"4.10106"},{"name":"Denderleeuw","countryCode":"BE","latitude":"50.88506","longitude":"4.07601"},{"name":"Deinze","countryCode":"BE","latitude":"50.98175","longitude":"3.53096"},{"name":"Courcelles","countryCode":"BE","latitude":"50.46379","longitude":"4.3747"},{"name":"Colfontaine","countryCode":"BE","latitude":"50.4141","longitude":"3.85569"},{"name":"Chaudfontaine","countryCode":"BE","latitude":"50.5828","longitude":"5.6341"},{"name":"Châtelineau","countryCode":"BE","latitude":"50.41499","longitude":"4.52016"},{"name":"Châtelet","countryCode":"BE","latitude":"50.40338","longitude":"4.52826"},{"name":"Charleroi","countryCode":"BE","latitude":"50.41136","longitude":"4.44448"},{"name":"Brussels","countryCode":"BE","latitude":"50.85045","longitude":"4.34878"},{"name":"Brugge","countryCode":"BE","latitude":"51.20892","longitude":"3.22424"},{"name":"Brasschaat","countryCode":"BE","latitude":"51.2912","longitude":"4.49182"},{"name":"Braine-le-Comte","countryCode":"BE","latitude":"50.60979","longitude":"4.14658"},{"name":"Braine-l'Alleud","countryCode":"BE","latitude":"50.68363","longitude":"4.36784"},{"name":"Boussu","countryCode":"BE","latitude":"50.43417","longitude":"3.7944"},{"name":"Bornem","countryCode":"BE","latitude":"51.09716","longitude":"4.24364"},{"name":"Borgerhout","countryCode":"BE","latitude":"51.20957","longitude":"4.43539"},{"name":"Boom","countryCode":"BE","latitude":"51.09242","longitude":"4.3717"},{"name":"Blauwput","countryCode":"BE","latitude":"50.88587","longitude":"4.72415"},{"name":"Blankenberge","countryCode":"BE","latitude":"51.31306","longitude":"3.13227"},{"name":"Binche","countryCode":"BE","latitude":"50.41155","longitude":"4.16469"},{"name":"Bilzen","countryCode":"BE","latitude":"50.87325","longitude":"5.5184"},{"name":"Beveren","countryCode":"BE","latitude":"51.21187","longitude":"4.25633"},{"name":"Bevere","countryCode":"BE","latitude":"50.8496","longitude":"3.5873"},{"name":"Beringen","countryCode":"BE","latitude":"51.04954","longitude":"5.22606"},{"name":"Berchem-Sainte-Agathe","countryCode":"BE","latitude":"50.86567","longitude":"4.29557"},{"name":"Berchem","countryCode":"BE","latitude":"51.19021","longitude":"4.43264"},{"name":"Beersel","countryCode":"BE","latitude":"50.76589","longitude":"4.3002"},{"name":"Beerse","countryCode":"BE","latitude":"51.31927","longitude":"4.85304"},{"name":"Balen","countryCode":"BE","latitude":"51.16837","longitude":"5.17027"},{"name":"Auderghem","countryCode":"BE","latitude":"50.81667","longitude":"4.43333"},{"name":"Ath","countryCode":"BE","latitude":"50.62937","longitude":"3.77801"},{"name":"Assebroek","countryCode":"BE","latitude":"51.19367","longitude":"3.2623"},{"name":"Asse","countryCode":"BE","latitude":"50.91011","longitude":"4.19836"},{"name":"Arlon","countryCode":"BE","latitude":"49.68333","longitude":"5.81667"},{"name":"Antwerpen","countryCode":"BE","latitude":"51.22047","longitude":"4.40026"},{"name":"Ans","countryCode":"BE","latitude":"50.6623","longitude":"5.52029"},{"name":"Anderlecht","countryCode":"BE","latitude":"50.83619","longitude":"4.31454"},{"name":"Andenne","countryCode":"BE","latitude":"50.48941","longitude":"5.09513"},{"name":"Aarschot","countryCode":"BE","latitude":"50.98715","longitude":"4.83695"},{"name":"Aalter","countryCode":"BE","latitude":"51.09017","longitude":"3.44693"},{"name":"Aalst","countryCode":"BE","latitude":"50.93604","longitude":"4.0355"},{"name":"Zorgo","countryCode":"BF","latitude":"12.24922","longitude":"-0.61527"},{"name":"Ziniaré","countryCode":"BF","latitude":"12.58186","longitude":"-1.2971"},{"name":"Yako","countryCode":"BF","latitude":"12.9591","longitude":"-2.26075"},{"name":"Tougan","countryCode":"BF","latitude":"13.0725","longitude":"-3.0694"},{"name":"Toma","countryCode":"BF","latitude":"12.75844","longitude":"-2.89879"},{"name":"Titao","countryCode":"BF","latitude":"13.76667","longitude":"-2.06667"},{"name":"Tenkodogo","countryCode":"BF","latitude":"11.78","longitude":"-0.36972"},{"name":"Salanso","countryCode":"BF","latitude":"12.17423","longitude":"-4.08477"},{"name":"Sapouy","countryCode":"BF","latitude":"11.55444","longitude":"-1.77361"},{"name":"Réo","countryCode":"BF","latitude":"12.31963","longitude":"-2.47094"},{"name":"Pô","countryCode":"BF","latitude":"11.16972","longitude":"-1.145"},{"name":"Ouahigouya","countryCode":"BF","latitude":"13.58278","longitude":"-2.42158"},{"name":"Ouagadougou","countryCode":"BF","latitude":"12.36566","longitude":"-1.53388"},{"name":"Nouna","countryCode":"BF","latitude":"12.72939","longitude":"-3.86305"},{"name":"Manga","countryCode":"BF","latitude":"11.66361","longitude":"-1.07306"},{"name":"Léo","countryCode":"BF","latitude":"11.10033","longitude":"-2.10654"},{"name":"Koupéla","countryCode":"BF","latitude":"12.17864","longitude":"-0.35103"},{"name":"Koudougou","countryCode":"BF","latitude":"12.25263","longitude":"-2.36272"},{"name":"Kongoussi","countryCode":"BF","latitude":"13.32583","longitude":"-1.53472"},{"name":"Kombissiri","countryCode":"BF","latitude":"12.06884","longitude":"-1.33644"},{"name":"Kokologo","countryCode":"BF","latitude":"12.19392","longitude":"-1.87687"},{"name":"Kaya","countryCode":"BF","latitude":"13.09167","longitude":"-1.08444"},{"name":"Houndé","countryCode":"BF","latitude":"11.5","longitude":"-3.51667"},{"name":"Gourcy","countryCode":"BF","latitude":"13.20776","longitude":"-2.35893"},{"name":"Gayéri","countryCode":"BF","latitude":"12.64824","longitude":"0.49314"},{"name":"Garango","countryCode":"BF","latitude":"11.8","longitude":"-0.55056"},{"name":"Gaoua","countryCode":"BF","latitude":"10.33137","longitude":"-3.18202"},{"name":"Fada N'gourma","countryCode":"BF","latitude":"12.06157","longitude":"0.35843"},{"name":"Dori","countryCode":"BF","latitude":"14.0341","longitude":"-0.03261"},{"name":"Djibo","countryCode":"BF","latitude":"14.0994","longitude":"-1.62554"},{"name":"Diébougou","countryCode":"BF","latitude":"10.96209","longitude":"-3.24967"},{"name":"Diapaga","countryCode":"BF","latitude":"12.07305","longitude":"1.78838"},{"name":"Dédougou","countryCode":"BF","latitude":"12.46338","longitude":"-3.46075"},{"name":"Dano","countryCode":"BF","latitude":"11.1464","longitude":"-3.05784"},{"name":"Boussé","countryCode":"BF","latitude":"12.66121","longitude":"-1.89515"},{"name":"Boulsa","countryCode":"BF","latitude":"12.66664","longitude":"-0.57469"},{"name":"Boromo","countryCode":"BF","latitude":"11.74542","longitude":"-2.93006"},{"name":"Bogandé","countryCode":"BF","latitude":"12.9704","longitude":"-0.14953"},{"name":"Bobo-Dioulasso","countryCode":"BF","latitude":"11.17715","longitude":"-4.2979"},{"name":"Batié","countryCode":"BF","latitude":"9.88333","longitude":"-2.91667"},{"name":"Banfora","countryCode":"BF","latitude":"10.63333","longitude":"-4.76667"},{"name":"Yambol","countryCode":"BG","latitude":"42.48333","longitude":"26.5"},{"name":"Vratsa","countryCode":"BG","latitude":"43.21","longitude":"23.5625"},{"name":"Vidin","countryCode":"BG","latitude":"43.99159","longitude":"22.88236"},{"name":"Velingrad","countryCode":"BG","latitude":"42.02754","longitude":"23.99155"},{"name":"Veliko Tŭrnovo","countryCode":"BG","latitude":"43.08124","longitude":"25.62904"},{"name":"Varna","countryCode":"BG","latitude":"43.21667","longitude":"27.91667"},{"name":"Targovishte","countryCode":"BG","latitude":"43.2512","longitude":"26.57215"},{"name":"Troyan","countryCode":"BG","latitude":"42.89427","longitude":"24.71589"},